MessageType,Provider,LatitudeDegrees,LongitudeDegrees,AltitudeMeters,SpeedMps,AccuracyMeters,BearingDegrees,UnixTimeMillis,SpeedAccuracyMps,BearingAccuracyDegrees,elapsedRealtimeNanos,VerticalAccuracyMeters
Fix,GT,37.4280397000,-122.0699122000,-29.239800535446363,0.00090102997,0.1,358.62277,1594247334436,,,,
Fix,GT,37.4280397000,-122.0699122000,-29.23980140686035,0.0,0.1,358.62277,1594247335436,,,,
Fix,GT,37.4280397000,-122.0699122000,-29.23980140686035,0.0006371243,0.1,358.62277,1594247336436,,,,
Fix,GT,37.4280397000,-122.0699122000,-29.23980140686035,0.0012639054,0.1,358.623,1594247337436,,,,
Fix,GT,37.4280397000,-122.0699122000,-29.23980140686035,0.0,0.1,358.6224,1594247338436,,,,
Fix,GT,37.4280397000,-122.0699122000,-29.23980140686035,0.00090102956,0.1,358.62234,1594247339436,,,,
Fix,GT,37.4280397000,-122.0699122000,-29.239800535446363,0.001,0.1,358.62213,1594247340436,,,,
Fix,GT,37.4280397000,-122.0699122000,-29.23980140686035,0.0,0.1,358.62186,1594247341436,,,,
Fix,GT,37.4280397000,-122.0699122000,-29.239800535446363,0.001,0.1,358.6217,1594247342436,,,,
Fix,GT,37.4280397000,-122.0699122000,-29.23980140686035,0.0014142136,0.1,358.62225,1594247343436,,,,
Fix,GT,37.4280397000,-122.0699122000,-29.23980140686035,0.0012639053,0.1,358.62195,1594247344436,,,,
Fix,GT,37.4280397000,-122.0699122000,-29.23980140686035,0.0017875284,0.1,358.62122,1594247345436,,,,
Fix,GT,37.4280397000,-122.0699122000,-29.23980140686035,0.001,0.1,358.6211,1594247346436,,,,
Fix,GT,37.4280397000,-122.0699122000,-29.23980140686035,0.00036287637,0.1,358.6213,1594247347436,,,,
Fix,GT,37.4280397000,-122.0699122000,-29.23980140686035,0.0009010288,0.1,358.62128,1594247348436,,,,
Fix,GT,37.4280397000,-122.0699122000,-29.23980140686035,0.001,0.1,358.6215,1594247349436,,,,
Fix,GT,37.4280397000,-122.0699122000,-29.23980140686035,0.0011503084,0.1,358.6212,1594247350436,,,,
Fix,GT,37.4280397000,-122.0699122000,-29.23980140686035,0.00036287674,0.1,358.62128,1594247351436,,,,
Fix,GT,37.4280397000,-122.0699122000,-29.23980140686035,0.003836736,0.1,358.62103,1594247352436,,,,
Fix,GT,37.4280397000,-122.0699122000,-29.23980140686035,0.002236068,0.1,358.6207,1594247353436,,,,
Fix,GT,37.4280397000,-122.0699122000,-29.23980227827434,0.0017124455,0.1,358.6209,1594247354436,,,,
Fix,GT,37.4280397000,-122.0699122000,-29.239800535446363,0.0019378361,0.1,358.62054,1594247355436,,,,
Fix,GT,37.4280397000,-122.0699122000,-29.23980227827434,0.0020147602,0.1,358.6203,1594247356436,,,,
Fix,GT,37.4280397000,-122.0699122000,-29.239800535446363,0.0021504043,0.1,358.62027,1594247357436,,,,
Fix,GT,37.4280397000,-122.0699122000,-29.23980227827434,0.0017124458,0.1,358.62006,1594247358436,,,,
Fix,GT,37.4280397000,-122.0699122000,-29.239800535446363,0.0014142136,0.1,358.6199,1594247359436,,,,
Fix,GT,37.4280397000,-122.0699122000,-29.23980140686035,0.0016371228,0.1,358.6199,1594247360436,,,,
Fix,GT,37.4280397000,-122.0699122000,-29.23980140686035,0.002236068,0.1,358.61945,1594247361436,,,,
Fix,GT,37.4280397000,-122.0699122000,-29.239800535446363,0.001,0.1,358.61942,1594247362436,,,,
Fix,GT,37.4280397000,-122.0699122000,-29.23980227827434,0.001,0.1,358.6199,1594247363436,,,,
Fix,GT,37.4280397000,-122.0699122000,-29.23980140686035,0.0006371226,0.1,358.61926,1594247364436,,,,
Fix,GT,37.4280397000,-122.0699122000,-29.23980227827434,0.0,0.1,358.61945,1594247365436,,,,
Fix,GT,37.4280397000,-122.0699122000,-29.24079998610017,0.0,0.1,358.6193,1594247366436,,,,
Fix,GT,37.4280397000,-122.0699122000,-29.240800857543945,0.0,0.1,358.61896,1594247367436,,,,
Fix,GT,37.4280396000,-122.0699122000,-29.24180030822754,0.0,0.1,358.6187,1594247368436,,,,
Fix,GT,37.4280396000,-122.0699122000,-29.242800794756363,0.0024245533,0.1,358.61868,1594247369436,,,,
Fix,GT,37.4280396000,-122.0699122000,-29.24380024541017,0.0027227858,0.1,358.61667,1594247370436,,,,
Fix,GT,37.4280396000,-122.0699122000,-29.244800567626953,0.0043499237,0.1,358.6174,1594247371436,,,,
Fix,GT,37.4280397000,-122.0699122000,-29.252799115991593,0.009637121,0.1,358.49402,1594247372436,,,,
Fix,GT,37.4280397000,-122.0699121000,-29.25507488981293,0.035692576,0.1,358.34528,1594247373436,,,,
Fix,GT,37.4280410000,-122.0699128000,-29.255164347148877,0.4001376,0.1,356.8566,1594247374436,,,,
Fix,GT,37.4280484000,-122.0699167000,-29.25680160522461,1.2137425,0.1,349.83902,1594247375436,,,,
Fix,GT,37.4280622000,-122.0699229000,-29.260800443267783,2.0198598,0.1,344.83746,1594247376436,,,,
Fix,GT,37.4280827000,-122.0699285000,-29.274163610000244,2.646997,0.1,347.04666,1594247377436,,,,
Fix,GT,37.4281095000,-122.0699338000,-29.277162654096855,3.4058409,0.1,350.68768,1594247378436,,,,
Fix,GT,37.4281440000,-122.0699358000,-29.27525321167468,4.298778,0.1,357.2353,1594247379436,,,,
Fix,GT,37.4281857000,-122.0699354000,-29.343341376614944,4.8966603,0.1,0.25088254,1594247380436,,,,
Fix,GT,37.4282297000,-122.0699351000,-29.387889495625927,4.832736,0.1,359.72406,1594247381436,,,,
Fix,GT,37.4282719000,-122.0699455000,-29.399164482755168,4.58728,0.1,345.6044,1594247382436,,,,
Fix,GT,37.4283046000,-122.0699784000,-29.424439070474477,4.567645,0.1,318.57974,1594247383436,,,,
Fix,GT,37.4283224000,-122.0700275000,-29.483615738522076,4.7685475,0.1,291.8788,1594247384436,,,,
Fix,GT,37.4283235000,-122.0700816000,-29.54525264411319,4.634245,0.1,267.89618,1594247385436,,,,
Fix,GT,37.4283036000,-122.0701280000,-29.64443023078769,4.495391,0.1,237.91441,1594247386436,,,,
Fix,GT,37.4282671000,-122.0701549000,-29.783970526257804,4.730199,0.1,207.74208,1594247387436,,,,
Fix,GT,37.4282224000,-122.0701623000,-29.899977907687344,5.0203657,0.1,185.90715,1594247388436,,,,
Fix,GT,37.4281743000,-122.0701612000,-29.714269589664468,5.724146,0.1,179.08842,1594247389436,,,,
Fix,GT,37.4281188000,-122.0701598000,-29.523268717565088,6.570731,0.1,178.7243,1594247390436,,,,
Fix,GT,37.4280572000,-122.0701581000,-29.504793520394685,6.9969826,0.1,178.66795,1594247391436,,,,
Fix,GT,37.4279944000,-122.0701563000,-29.6057843173935,6.8798018,0.1,178.74786,1594247392436,,,,
Fix,GT,37.4279327000,-122.0701542000,-29.560262099724696,6.80859,0.1,178.62325,1594247393436,,,,
Fix,GT,37.4278701000,-122.0701519000,-29.382544153808908,7.167868,0.1,178.46085,1594247394436,,,,
Fix,GT,37.4278037000,-122.0701497000,-29.34297870221735,7.652211,0.1,178.84813,1594247395436,,,,
Fix,GT,37.4277315000,-122.0701482000,-29.42805163395252,8.293187,0.1,179.36588,1594247396436,,,,
Fix,GT,37.4276552000,-122.0701473000,-29.31609948628966,8.6084385,0.1,179.82182,1594247397436,,,,
Fix,GT,37.4275775000,-122.0701457000,-29.201809455683133,8.486961,0.1,179.09918,1594247398436,,,,
Fix,GT,37.4275046000,-122.0701429000,-29.326155158340953,7.7734003,0.1,178.63675,1594247399436,,,,
Fix,GT,37.4274376000,-122.0701405000,-29.267632785936485,6.951748,0.1,179.26768,1594247400436,,,,
Fix,GT,37.4273817000,-122.0701453000,-29.11190604751073,5.50469,0.1,187.59187,1594247401436,,,,
Fix,GT,37.4273431000,-122.0701698000,-29.032712085657295,4.4348364,0.1,211.93947,1594247402436,,,,
Fix,GT,37.4273274000,-122.0702123000,-28.964163802256508,4.0716343,0.1,246.4606,1594247403436,,,,
Fix,GT,37.4273246000,-122.0702604000,-28.923349461379303,4.3738284,0.1,264.80466,1594247404436,,,,
Fix,GT,37.4273157000,-122.0703070000,-28.869623913139094,4.0371356,0.1,254.16147,1594247405436,,,,
Fix,GT,37.4272916000,-122.0703425000,-28.816526980245726,4.1355424,0.1,227.87862,1594247406436,,,,
Fix,GT,37.4272532000,-122.0703620000,-28.795251765427338,4.81173,0.1,201.0309,1594247407436,,,,
Fix,GT,37.4272053000,-122.0703689000,-28.857793282399257,5.793841,0.1,185.70482,1594247408436,,,,
Fix,GT,37.4271483000,-122.0703734000,-28.962977634459776,6.902,0.1,183.35487,1594247409436,,,,
Fix,GT,37.4270821000,-122.0703768000,-29.107616279613694,7.581908,0.1,181.77444,1594247410436,,,,
Fix,GT,37.4270134000,-122.0703778000,-28.94762302812933,7.5067086,0.1,180.1221,1594247411436,,,,
Fix,GT,37.4269494000,-122.0703762000,-28.86308492152068,6.6590567,0.1,177.48566,1594247412436,,,,
Fix,GT,37.4268949000,-122.0703590000,-28.800075822352596,5.835578,0.1,160.8022,1594247413436,,,,
Fix,GT,37.4268570000,-122.0703153000,-28.808075599459244,5.4300137,0.1,131.77853,1594247414436,,,,
Fix,GT,37.4268419000,-122.0702573000,-28.829341441822407,5.23062,0.1,105.76008,1594247415436,,,,
Fix,GT,37.4268301000,-122.0702019000,-28.874341518116353,4.8929644,0.1,107.9486,1594247416436,,,,
Fix,GT,37.4268050000,-122.0701604000,-28.895801544189453,4.4797,0.1,131.41554,1594247417436,,,,
Fix,GT,37.4267654000,-122.0701418000,-28.743792958686527,5.1802497,0.1,160.5775,1594247418436,,,,
Fix,GT,37.4267146000,-122.0701345000,-28.93324409449815,6.3059597,0.1,175.09749,1594247419436,,,,
Fix,GT,37.4266523000,-122.0701327000,-29.065155474483618,7.486925,0.1,179.47864,1594247420436,,,,
Fix,GT,37.4265832000,-122.0701317000,-29.202519369958736,7.7535295,0.1,179.96014,1594247421436,,,,
Fix,GT,37.4265149000,-122.0701309000,-29.032721461509936,7.303338,0.1,180.24693,1594247422436,,,,
Fix,GT,37.4264533000,-122.0701309000,-28.87389857843425,6.232419,0.1,181.41483,1594247423436,,,,
Fix,GT,37.4264039000,-122.0701421000,-28.604793017754787,5.245075,0.1,195.60168,1594247424436,,,,
Fix,GT,37.4263691000,-122.0701773000,-28.77717290321266,4.9367456,0.1,223.81757,1594247425436,,,,
Fix,GT,37.4263541000,-122.0702277000,-28.82488977082062,4.8259697,0.1,252.74557,1594247426436,,,,
Fix,GT,37.4263550000,-122.0702821000,-28.776260824668043,4.767647,0.1,274.37985,1594247427436,,,,
Fix,GT,37.4263746000,-122.0703255000,-28.688534881189867,4.3031864,0.1,304.5651,1594247428436,,,,
Fix,GT,37.4264110000,-122.0703445000,-28.59982580968085,4.744862,0.1,339.29895,1594247429436,,,,
Fix,GT,37.4264573000,-122.0703478000,-28.52321939090683,5.587888,0.1,357.59912,1594247430436,,,,
Fix,GT,37.4265107000,-122.0703477000,-28.709978586696366,6.200184,0.1,0.4675928,1594247431436,,,,
Fix,GT,37.4265681000,-122.0703463000,-28.796430630377188,6.4839306,0.1,1.6957046,1594247432436,,,,
Fix,GT,37.4266272000,-122.0703442000,-28.855526536311118,6.6284266,0.1,1.7083455,1594247433436,,,,
Fix,GT,37.4266873000,-122.0703437000,-28.82498651964761,6.67548,0.1,0.11751641,1594247434436,,,,
Fix,GT,37.4267470000,-122.0703453000,-28.75699458051713,6.5465307,0.1,359.05817,1594247435436,,,,
Fix,GT,37.4268055000,-122.0703471000,-28.563262332749048,6.5031905,0.1,358.59143,1594247436436,,,,
Fix,GT,37.4268650000,-122.0703498000,-28.750704502094834,6.755663,0.1,358.15308,1594247437436,,,,
Fix,GT,37.4269279000,-122.0703514000,-28.80780029296875,7.2488565,0.1,358.98062,1594247438436,,,,
Fix,GT,37.4269956000,-122.0703526000,-28.901155221991303,7.8189898,0.1,359.4572,1594247439436,,,,
Fix,GT,37.4270689000,-122.0703533000,-28.992058076078138,8.416086,0.1,359.75397,1594247440436,,,,
Fix,GT,37.4271460000,-122.0703543000,-29.04790566646568,8.525492,0.1,359.53876,1594247441436,,,,
Fix,GT,37.4272211000,-122.0703544000,-28.884994838009334,8.168953,0.1,0.5756811,1594247442436,,,,
Fix,GT,37.4272934000,-122.0703530000,-28.75917220371639,7.9950676,0.1,1.1036056,1594247443436,,,,
Fix,GT,37.4273678000,-122.0703515000,-28.869155636839423,8.605493,0.1,0.9214832,1594247444436,,,,
Fix,GT,37.4274485000,-122.0703507000,-28.955695411150373,9.248184,0.1,0.4866342,1594247445436,,,,
Fix,GT,37.4275333000,-122.0703507000,-29.06980948947887,9.537374,0.1,0.09259825,1594247446436,,,,
Fix,GT,37.4276203000,-122.0703507000,-29.039155714563776,9.805161,0.1,0.19908668,1594247447436,,,,
Fix,GT,37.4277105000,-122.0703504000,-29.11733339103273,10.193233,0.1,0.3685206,1594247448436,,,,
Fix,GT,37.4278024000,-122.0703497000,-29.162889984944457,10.113404,0.1,0.61096704,1594247449436,,,,
Fix,GT,37.4278927000,-122.0703483000,-29.21651115570296,9.93631,0.1,0.82408315,1594247450436,,,,
Fix,GT,37.4279813000,-122.0703466000,-29.290163323802062,9.663082,0.1,1.1661192,1594247451436,,,,
Fix,GT,37.4280653000,-122.0703437000,-29.309252577951895,8.864291,0.1,1.933073,1594247452436,,,,
Fix,GT,37.4281390000,-122.0703395000,-29.341615879873075,7.492471,0.1,2.7392528,1594247453436,,,,
Fix,GT,37.4281996000,-122.0703363000,-29.41152698597591,5.9422727,0.1,1.460506,1594247454436,,,,
Fix,GT,37.4282484000,-122.0703423000,-29.465615215170374,5.116653,0.1,351.61697,1594247455436,,,,
Fix,GT,37.4282890000,-122.0703658000,-29.484074978148783,4.7039533,0.1,331.61563,1594247456436,,,,
Fix,GT,37.4283153000,-122.0704079000,-29.440995455717257,4.7779827,0.1,305.09155,1594247457436,,,,
Fix,GT,37.4283269000,-122.0704651000,-29.31689868437303,5.5529575,0.1,281.77405,1594247458436,,,,
Fix,GT,37.4283294000,-122.0705331000,-29.206082377346945,6.2486014,0.1,272.30515,1594247459436,,,,
Fix,GT,37.4283315000,-122.0706025000,-29.11189701870319,5.9648504,0.1,272.1859,1594247460436,,,,
Fix,GT,37.4283330000,-122.0706682000,-29.051182069795402,5.6856804,0.1,271.44232,1594247461436,,,,
Fix,GT,37.4283336000,-122.0707340000,-29.068525709191363,6.2234473,0.1,270.72296,1594247462436,,,,
Fix,GT,37.4283340000,-122.0708110000,-29.13915576377019,7.416132,0.1,270.17947,1594247463436,,,,
Fix,GT,37.4283331000,-122.0708999000,-29.236703719490833,8.212622,0.1,269.35788,1594247464436,,,,
Fix,GT,37.4283317000,-122.0709968000,-29.347155954505183,8.864422,0.1,269.09433,1594247465436,,,,
Fix,GT,37.4283301000,-122.0710971000,-29.340897098662026,8.801385,0.1,269.01138,1594247466436,,,,
Fix,GT,37.4283282000,-122.0711940000,-29.188907248577323,8.234579,0.1,268.79156,1594247467436,,,,
Fix,GT,37.4283275000,-122.0712821000,-29.033170629330755,7.5296087,0.1,270.2357,1594247468436,,,,
Fix,GT,37.4283280000,-122.0713646000,-28.927446587989152,7.176496,0.1,270.99826,1594247469436,,,,
Fix,GT,37.4283298000,-122.0714461000,-28.950793361201477,7.389855,0.1,272.06668,1594247470436,,,,
Fix,GT,37.4283335000,-122.0715324000,-29.024889849129977,7.846656,0.1,273.6073,1594247471436,,,,
Fix,GT,37.4283385000,-122.0716204000,-29.114066350917597,7.6599493,0.1,274.17908,1594247472436,,,,
Fix,GT,37.4283428000,-122.0717048000,-29.16834873020349,7.3732834,0.1,273.2341,1594247473436,,,,
Fix,GT,37.4283421000,-122.0717862000,-29.130712866469594,6.9055896,0.1,266.59256,1594247474436,,,,
Fix,GT,37.4283243000,-122.0718569000,-29.056172202618995,6.1847467,0.1,246.86458,1594247475436,,,,
Fix,GT,37.4282860000,-122.0719065000,-29.043889642790646,5.9174414,0.1,220.17708,1594247476436,,,,
Fix,GT,37.4282350000,-122.0719298000,-29.031977895052705,6.1775246,0.1,195.04366,1594247477436,,,,
Fix,GT,37.4281756000,-122.0719308000,-29.007711766227317,6.9197793,0.1,178.78214,1594247478436,,,,
Fix,GT,37.4281099000,-122.0719272000,-28.925437640566997,7.6546354,0.1,177.64151,1594247479436,,,,
Fix,GT,37.4280374000,-122.0719236000,-28.983614878824483,8.430665,0.1,177.64738,1594247480436,,,,
Fix,GT,37.4279606000,-122.0719189000,-29.04798589867272,8.50034,0.1,177.31537,1594247481436,,,,
Fix,GT,37.4278856000,-122.0719146000,-28.96380129348637,8.159531,0.1,177.74677,1594247482436,,,,
Fix,GT,37.4278148000,-122.0719114000,-28.925987192305286,7.476885,0.1,178.53891,1594247483436,,,,
Fix,GT,37.4277529000,-122.0719106000,-28.90152590323669,6.200673,0.1,181.08043,1594247484436,,,,
Fix,GT,37.4277045000,-122.0719167000,-28.903710809936058,4.620406,0.1,187.9216,1594247485436,,,,
Fix,GT,37.4276693000,-122.0719333000,-28.831261955570994,3.8906393,0.1,203.60728,1594247486436,,,,
Fix,GT,37.4276490000,-122.0719648000,-28.69990685468281,3.5812087,0.1,231.81644,1594247487436,,,,
Fix,GT,37.4276453000,-122.0720058000,-28.57134861638457,3.7287598,0.1,263.62305,1594247488436,,,,
Fix,GT,37.4276546000,-122.0720472000,-28.2763826455556,4.008106,0.1,284.98972,1594247489436,,,,
Fix,GT,37.4276701000,-122.0720921000,-28.40259036450908,4.774269,0.1,294.141,1594247490436,,,,
Fix,GT,37.4276952000,-122.0721381000,-28.41079283524357,5.1149254,0.1,308.79102,1594247491436,,,,
Fix,GT,37.4277379000,-122.0721635000,-28.474067491633946,5.667879,0.1,339.2288,1594247492436,,,,
Fix,GT,37.4277923000,-122.0721690000,-28.48389103437512,6.534059,0.1,356.69815,1594247493436,,,,
Fix,GT,37.4278543000,-122.0721703000,-28.552066974670424,7.178849,0.1,359.83286,1594247494436,,,,
Fix,GT,37.4279204000,-122.0721696000,-28.66688075068032,7.49004,0.1,0.9886919,1594247495436,,,,
Fix,GT,37.4279890000,-122.0721679000,-28.812251987393324,7.680829,0.1,1.4369332,1594247496436,,,,
Fix,GT,37.4280572000,-122.0721660000,-28.777173696274872,7.423895,0.1,1.5354774,1594247497436,,,,
Fix,GT,37.4281215000,-122.0721635000,-28.650534714828154,6.8326874,0.1,1.9987681,1594247498436,,,,
Fix,GT,37.4281806000,-122.0721609000,-28.726430144517394,6.2794905,0.1,1.7011304,1594247499436,,,,
Fix,GT,37.4282334000,-122.0721609000,-28.817340449285666,5.326894,0.1,358.57788,1594247500436,,,,
Fix,GT,37.4282759000,-122.0721712000,-28.764898575407983,4.385767,0.1,346.47205,1594247501436,,,,
Fix,GT,37.4283075000,-122.0721980000,-28.663349206511725,3.9814675,0.1,324.0082,1594247502436,,,,
Fix,GT,37.4283265000,-122.0722390000,-28.584172038228417,4.2296233,0.1,298.44394,1594247503436,,,,
Fix,GT,37.4283318000,-122.0722903000,-28.479348340909326,4.793352,0.1,275.77304,1594247504436,,,,
Fix,GT,37.4283295000,-122.0723485000,-28.381721228718504,5.303097,0.1,267.01562,1594247505436,,,,
Fix,GT,37.4283256000,-122.0724070000,-28.296987446187586,4.9760127,0.1,263.6147,1594247506436,,,,
Fix,GT,37.4283151000,-122.0724585000,-28.2509850177492,4.328104,0.1,254.39478,1594247507436,,,,
Fix,GT,37.4283006000,-122.0724967000,-28.223347827355894,2.9168406,0.1,244.22752,1594247508436,,,,
Fix,GT,37.4282897000,-122.0725175000,-28.200074941930268,1.4985191,0.1,238.47693,1594247509436,,,,
Fix,GT,37.4282856000,-122.0725257000,-28.19216375873293,0.24443367,0.1,237.44133,1594247510436,,,,
Fix,GT,37.4282856000,-122.0725260000,-28.19916288791495,0.048149258,0.1,237.43918,1594247511436,,,,
Fix,GT,37.4282855000,-122.0725264000,-28.19716445213072,0.06317215,0.1,237.4315,1594247512436,,,,
Fix,GT,37.4282855000,-122.0725265000,-28.198164277770047,0.008706851,0.1,237.43004,1594247513436,,,,
Fix,GT,37.4282855000,-122.0725265000,-28.198800200259655,0.0077070273,0.1,237.43115,1594247514436,,,,
Fix,GT,37.4282855000,-122.0725266000,-28.199800491333008,0.003836743,0.1,237.43199,1594247515436,,,,
Fix,GT,37.4282854000,-122.0725266000,-28.200801849365234,0.003444693,0.1,237.43155,1594247516436,,,,
Fix,GT,37.4282854000,-122.0725266000,-28.200801008915846,0.002876177,0.1,237.43204,1594247517436,,,,
Fix,GT,37.4282854000,-122.0725266000,-28.200801849365234,0.0028261677,0.1,237.4322,1594247518436,,,,
Fix,GT,37.4282854000,-122.0725266000,-28.200801008915846,0.003774433,0.1,237.43207,1594247519436,,,,
Fix,GT,37.4282854000,-122.0725266000,-28.200801849365234,0.001,0.1,237.43217,1594247520436,,,,
Fix,GT,37.4282854000,-122.0725266000,-28.200801008915846,0.001448554,0.1,237.43198,1594247521436,,,,
Fix,GT,37.4282854000,-122.0725266000,-28.200801849365234,0.0006371121,0.1,237.43199,1594247522436,,,,
Fix,GT,37.4282854000,-122.0725266000,-28.200801008915846,0.00063711207,0.1,237.43248,1594247523436,,,,
Fix,GT,37.4282854000,-122.0725266000,-28.200801849365234,0.00063711207,0.1,237.4315,1594247524436,,,,
Fix,GT,37.4282854000,-122.0725266000,-28.200801849365234,0.0012639004,0.1,237.43187,1594247525436,,,,
Fix,GT,37.4282854000,-122.0725266000,-28.200801008915846,0.0003628882,0.1,237.43219,1594247526436,,,,
Fix,GT,37.4282854000,-122.0725266000,-28.200801849365234,0.0006371117,0.1,237.432,1594247527436,,,,
Fix,GT,37.4282854000,-122.0725266000,-28.200801849365234,0.0,0.1,237.43224,1594247528436,,,,
Fix,GT,37.4282854000,-122.0725266000,-28.200801008915846,0.0006371114,0.1,237.43167,1594247529436,,,,
Fix,GT,37.4282854000,-122.0725266000,-28.200801849365234,0.0,0.1,237.4318,1594247530436,,,,
Fix,GT,37.4282854000,-122.0725266000,-28.200801849365234,0.00063711125,0.1,237.43237,1594247531436,,,,
Fix,GT,37.4282854000,-122.0725266000,-28.200801008915846,0.0009999999,0.1,237.4322,1594247532436,,,,
Fix,GT,37.4282854000,-122.0725266000,-28.200802689814623,0.0,0.1,237.4321,1594247533436,,,,
Fix,GT,37.4282854000,-122.0725266000,-28.200802689814623,0.00036288885,0.1,237.43297,1594247534436,,,,
Fix,GT,37.4282854000,-122.0725266000,-28.200801008915846,0.0006371111,0.1,237.43248,1594247535436,,,,
Fix,GT,37.4282854000,-122.0725266000,-28.200801008915846,0.00036288903,0.1,237.43358,1594247536436,,,,
Fix,GT,37.4282854000,-122.0725266000,-28.200802689814623,0.0,0.1,237.43239,1594247537436,,,,
Fix,GT,37.4282854000,-122.0725266000,-28.200801008915846,0.001,0.1,237.4319,1594247538436,,,,
Fix,GT,37.4282854000,-122.0725266000,-28.200801849365234,0.0012639,0.1,237.4319,1594247539436,,,,
Fix,GT,37.4282854000,-122.0725266000,-28.200801008915846,0.001,0.1,237.43245,1594247540436,,,,
Fix,GT,37.4282854000,-122.0725266000,-28.200801008915846,0.0009010104,0.1,237.43144,1594247541436,,,,
Fix,GT,37.4282854000,-122.0725266000,-28.200801008915846,0.001,0.1,237.43208,1594247542436,,,,
Fix,GT,37.4282854000,-122.0725266000,-28.200801849365234,0.0003628895,0.1,237.43245,1594247543436,,,,
Fix,GT,37.4282854000,-122.0725266000,-28.200801849365234,0.00090101035,0.1,237.43268,1594247544436,,,,
Fix,GT,37.4282854000,-122.0725266000,-28.200801849365234,0.001,0.1,237.4321,1594247545436,,,,
Fix,GT,37.4282854000,-122.0725266000,-28.200801008915846,0.0019378256,0.1,237.43301,1594247546436,,,,
Fix,GT,37.4282854000,-122.0725266000,-28.200801849365234,0.001,0.1,237.4323,1594247547436,,,,
Fix,GT,37.4282854000,-122.0725266000,-28.200801008915846,0.0012638996,0.1,237.4326,1594247548436,,,,
Fix,GT,37.4282854000,-122.0725266000,-28.200801008915846,0.001,0.1,237.43214,1594247549436,,,,
Fix,GT,37.4282854000,-122.0725266000,-28.200802689814623,0.00036289004,0.1,237.4328,1594247550436,,,,
Fix,GT,37.4282854000,-122.0725266000,-28.200802689814623,0.0006371099,0.1,237.43219,1594247551436,,,,
Fix,GT,37.4282854000,-122.0725266000,-28.200801849365234,0.0005132042,0.1,237.43307,1594247552436,,,,
Fix,GT,37.4282854000,-122.0725266000,-28.200802689814623,0.0009010094,0.1,237.43285,1594247553436,,,,
Fix,GT,37.4282854000,-122.0725266000,-28.200801849365234,0.001,0.1,237.43288,1594247554436,,,,
Fix,GT,37.4282854000,-122.0725266000,-28.200801008915846,0.001150314,0.1,237.4334,1594247555436,,,,
Fix,GT,37.4282854000,-122.0725266000,-28.200801849365234,0.0003628904,0.1,237.43341,1594247556436,,,,
Fix,GT,37.4282854000,-122.0725266000,-28.200801849365234,0.0006371097,0.1,237.43343,1594247557436,,,,
Fix,GT,37.4282854000,-122.0725266000,-28.200802689814623,0.00036289042,0.1,237.43343,1594247558436,,,,
Fix,GT,37.4282854000,-122.0725266000,-28.200801849365234,0.0,0.1,237.43314,1594247559436,,,,
Fix,GT,37.4282854000,-122.0725266000,-28.200801849365234,0.00063710957,0.1,237.4329,1594247560436,,,,
Fix,GT,37.4282854000,-122.0725266000,-28.200801849365234,0.00036289057,0.1,237.43272,1594247561436,,,,
Fix,GT,37.4282854000,-122.0725266000,-28.200801849365234,0.0,0.1,237.43271,1594247562436,,,,
Fix,GT,37.4282854000,-122.0725266000,-28.200801849365234,0.0012638994,0.1,237.43282,1594247563436,,,,
Fix,GT,37.4282854000,-122.0725266000,-28.200801849365234,0.00063710933,0.1,237.43312,1594247564436,,,,
Fix,GT,37.4282854000,-122.0725266000,-28.200801849365234,0.001,0.1,237.43312,1594247565436,,,,
Fix,GT,37.4282854000,-122.0725266000,-28.200801849365234,0.0006371092,0.1,237.43306,1594247566436,,,,
Fix,GT,37.4282854000,-122.0725266000,-28.200801849365234,0.00036289086,0.1,237.43365,1594247567436,,,,
Fix,GT,37.4282854000,-122.0725266000,-28.200801849365234,0.0009010083,0.1,237.43343,1594247568436,,,,
Fix,GT,37.4282854000,-122.0725266000,-28.200802689814623,0.0010000002,0.1,237.4333,1594247569436,,,,
Fix,GT,37.4282854000,-122.0725266000,-28.200801849365234,0.001,0.1,237.43356,1594247570436,,,,
Fix,GT,37.4282854000,-122.0725266000,-28.200802689814623,0.001,0.1,237.4336,1594247571436,,,,
Fix,GT,37.4282854000,-122.0725266000,-28.200801849365234,0.001,0.1,237.43341,1594247572436,,,,
Fix,GT,37.4282854000,-122.0725266000,-28.200801849365234,0.0,0.1,237.43338,1594247573436,,,,
Fix,GT,37.4282854000,-122.0725266000,-28.200801849365234,0.0,0.1,237.43352,1594247574436,,,,
Fix,GT,37.4282854000,-122.0725266000,-28.200801849365234,0.0,0.1,237.43358,1594247575436,,,,
Fix,GT,37.4282854000,-122.0725266000,-28.200802689814623,0.0006371088,0.1,237.43365,1594247576436,,,,
Fix,GT,37.4282854000,-122.0725266000,-28.200802689814623,0.0,0.1,237.43356,1594247577436,,,,
Fix,GT,37.4282854000,-122.0725266000,-28.200801849365234,0.00063710875,0.1,237.43382,1594247578436,,,,
Fix,GT,37.4282854000,-122.0725266000,-28.200801849365234,0.00036289133,0.1,237.4341,1594247579436,,,,
Fix,GT,37.4282854000,-122.0725266000,-28.200801849365234,0.0006371087,0.1,237.434,1594247580436,,,,
Fix,GT,37.4282854000,-122.0725266000,-28.200801849365234,0.00063710863,0.1,237.43532,1594247581436,,,,
Fix,GT,37.4282854000,-122.0725266000,-28.200801849365234,0.00063710863,0.1,237.43475,1594247582436,,,,
Fix,GT,37.4282854000,-122.0725266000,-28.200801849365234,0.0005132059,0.1,237.4344,1594247583436,,,,
Fix,GT,37.4282854000,-122.0725266000,-28.200801849365234,0.001,0.1,237.43454,1594247584436,,,,
Fix,GT,37.4282854000,-122.0725266000,-28.200802689814623,0.0,0.1,237.43425,1594247585436,,,,
Fix,GT,37.4282854000,-122.0725266000,-28.200801849365234,0.001,0.1,237.4341,1594247586436,,,,
Fix,GT,37.4282854000,-122.0725266000,-28.200802689814623,0.0003628916,0.1,237.43448,1594247587436,,,,
Fix,GT,37.4282854000,-122.0725266000,-28.200801849365234,0.001,0.1,237.43465,1594247588436,,,,
Fix,GT,37.4282854000,-122.0725266000,-28.200801849365234,0.0014142136,0.1,237.43451,1594247589436,,,,
Fix,GT,37.4282854000,-122.0725266000,-28.200802689814623,0.0012638989,0.1,237.43459,1594247590436,,,,
Fix,GT,37.4282854000,-122.0725266000,-28.200801849365234,0.00036289176,0.1,237.43407,1594247591436,,,,
Fix,GT,37.4282854000,-122.0725266000,-28.200801849365234,0.0,0.1,237.43413,1594247592436,,,,
Fix,GT,37.4282854000,-122.0725266000,-28.200801849365234,0.0006371083,0.1,237.43504,1594247593436,,,,
Fix,GT,37.4282854000,-122.0725266000,-28.200802689814623,0.001,0.1,237.43436,1594247594436,,,,
Fix,GT,37.4282854000,-122.0725266000,-28.200802689814623,0.00063710834,0.1,237.43425,1594247595436,,,,
Fix,GT,37.4282854000,-122.0725266000,-28.200802689814623,0.0,0.1,237.43419,1594247596436,,,,
Fix,GT,37.4282854000,-122.0725266000,-28.200801008915846,0.0011503147,0.1,237.43472,1594247597436,,,,
Fix,GT,37.4282854000,-122.0725266000,-28.200802689814623,0.0006371081,0.1,237.43535,1594247598436,,,,
Fix,GT,37.4282854000,-122.0725266000,-28.200802689814623,0.00036289197,0.1,237.43515,1594247599436,,,,
Fix,GT,37.4282854000,-122.0725266000,-28.200802689814623,0.00036289197,0.1,237.43436,1594247600436,,,,
Fix,GT,37.4282854000,-122.0725266000,-28.200802689814623,0.00036289197,0.1,237.43442,1594247601436,,,,
Fix,GT,37.4282854000,-122.0725266000,-28.200801008915846,0.001,0.1,237.4344,1594247602436,,,,
Fix,GT,37.4282854000,-122.0725266000,-28.200801849365234,0.000637108,0.1,237.43428,1594247603436,,,,
Fix,GT,37.4282854000,-122.0725266000,-28.200801849365234,0.0,0.1,237.43427,1594247604436,,,,
Fix,GT,37.4282854000,-122.0725266000,-28.200801849365234,0.0,0.1,237.43445,1594247605436,,,,
Fix,GT,37.4282854000,-122.0725266000,-28.200801008915846,0.00036289214,0.1,237.43439,1594247606436,,,,
Fix,GT,37.4282854000,-122.0725266000,-28.200801849365234,0.001,0.1,237.43416,1594247607436,,,,
Fix,GT,37.4282854000,-122.0725266000,-28.200802689814623,0.0011503149,0.1,237.43439,1594247608436,,,,
Fix,GT,37.4282854000,-122.0725266000,-28.200801849365234,0.001,0.1,237.43457,1594247609436,,,,
Fix,GT,37.4282854000,-122.0725266000,-28.200801849365234,0.001,0.1,237.43427,1594247610436,,,,
Fix,GT,37.4282854000,-122.0725266000,-28.200802689814623,0.001,0.1,237.43474,1594247611436,,,,
Fix,GT,37.4282854000,-122.0725266000,-28.200802689814623,0.001,0.1,237.43466,1594247612436,,,,
Fix,GT,37.4282854000,-122.0725266000,-28.200801849365234,0.00063710765,0.1,237.4344,1594247613436,,,,
Fix,GT,37.4282854000,-122.0725266000,-28.200801008915846,0.00063710765,0.1,237.43503,1594247614436,,,,
Fix,GT,37.4282854000,-122.0725266000,-28.200801008915846,0.00063710765,0.1,237.43477,1594247615436,,,,
Fix,GT,37.4282854000,-122.0725266000,-28.200802689814623,0.0009010062,0.1,237.43526,1594247616436,,,,
Fix,GT,37.4282854000,-122.0725266000,-28.200801008915846,0.001,0.1,237.43503,1594247617436,,,,
Fix,GT,37.4282854000,-122.0725266000,-28.200802689814623,0.0,0.1,237.43561,1594247618436,,,,
Fix,GT,37.4282854000,-122.0725266000,-28.200802689814623,0.0,0.1,237.43533,1594247619436,,,,
Fix,GT,37.4282854000,-122.0725266000,-28.200801849365234,0.0,0.1,237.43509,1594247620436,,,,
Fix,GT,37.4282854000,-122.0725266000,-28.200802689814623,0.0,0.1,237.43523,1594247621436,,,,
Fix,GT,37.4282854000,-122.0725266000,-28.200801008915846,0.0003628926,0.1,237.43546,1594247622436,,,,
Fix,GT,37.4282854000,-122.0725266000,-28.200801008915846,0.0014142136,0.1,237.43556,1594247623436,,,,
Fix,GT,37.4282854000,-122.0725266000,-28.200801008915846,0.0014142136,0.1,237.4356,1594247624436,,,,
Fix,GT,37.4282854000,-122.0725266000,-28.200801008915846,0.0003628926,0.1,237.43607,1594247625436,,,,
Fix,GT,37.4282854000,-122.0725266000,-28.200802689814623,0.0,0.1,237.43597,1594247626436,,,,
Fix,GT,37.4282854000,-122.0725266000,-28.200802689814623,0.0,0.1,237.43637,1594247627436,,,,
Fix,GT,37.4282854000,-122.0725266000,-28.200802689814623,0.0006371074,0.1,237.43658,1594247628436,,,,
Fix,GT,37.4282854000,-122.0725266000,-28.200801849365234,0.00036289275,0.1,237.43652,1594247629436,,,,
Fix,GT,37.4282854000,-122.0725266000,-28.200801008915846,0.0,0.1,237.4365,1594247630436,,,,
Fix,GT,37.4282854000,-122.0725266000,-28.200802689814623,0.0011503152,0.1,237.43623,1594247631436,,,,
Fix,GT,37.4282854000,-122.0725266000,-28.200802689814623,0.0010000002,0.1,237.43639,1594247632436,,,,
Fix,GT,37.4282854000,-122.0725266000,-28.200801849365234,0.0016371071,0.1,237.43643,1594247633436,,,,
Fix,GT,37.4282854000,-122.0725266000,-28.200801849365234,0.0016371071,0.1,237.43611,1594247634436,,,,
Fix,GT,37.4282854000,-122.0725266000,-28.200801008915846,0.002,0.1,237.43637,1594247635436,,,,
Fix,GT,37.4282854000,-122.0725266000,-28.200801849365234,0.0014485606,0.1,237.43654,1594247636436,,,,
Fix,GT,37.4282854000,-122.0725266000,-28.200801849365234,0.0014485606,0.1,237.43636,1594247637436,,,,
Fix,GT,37.4282854000,-122.0725266000,-28.200801008915846,0.0031085752,0.1,237.43648,1594247638436,,,,
Fix,GT,37.4282854000,-122.0725266000,-28.200801849365234,0.0014485606,0.1,237.43643,1594247639436,,,,
Fix,GT,37.4282854000,-122.0725266000,-28.200801849365234,0.00090100523,0.1,237.4368,1594247640436,,,,
Fix,GT,37.4282854000,-122.0725266000,-28.200801849365234,0.003,0.1,237.4366,1594247641436,,,,
Fix,GT,37.4282854000,-122.0725266000,-28.200801849365234,0.003359881,0.1,237.4366,1594247642436,,,,
Fix,GT,37.4282853000,-122.0725266000,-28.20116454336494,0.008062257,0.1,237.43733,1594247643436,,,,
Fix,GT,37.4282853000,-122.0725266000,-28.201801300048828,0.010324238,0.1,237.43642,1594247644436,,,,
Fix,GT,37.4282852000,-122.0725266000,-28.204162747130624,0.020072618,0.1,237.44102,1594247645436,,,,
Fix,GT,37.4282846000,-122.0725271000,-28.212164223109085,0.31291342,0.1,237.30489,1594247646436,,,,
Fix,GT,37.4282810000,-122.0725329000,-28.200074928334914,0.94317055,0.1,236.24857,1594247647436,,,,
Fix,GT,37.4282742000,-122.0725441000,-28.181985955688162,1.5676386,0.1,235.52287,1594247648436,,,,
Fix,GT,37.4282679000,-122.0725633000,-28.199527121289975,2.092334,0.1,244.8821,1594247649436,,,,
Fix,GT,37.4282704000,-122.0725905000,-28.219348930425326,2.7620168,0.1,269.38766,1594247650436,,,,
Fix,GT,37.4282849000,-122.0726245000,-28.187437974562044,4.100452,0.1,295.67145,1594247651436,,,,
Fix,GT,37.4283128000,-122.0726676000,-28.24288908346375,5.930946,0.1,307.65353,1594247652436,,,,
Fix,GT,37.4283439000,-122.0727342000,-28.31661511856646,7.6299477,0.1,298.41998,1594247653436,,,,
Fix,GT,37.4283695000,-122.0728217000,-28.401429465026354,8.796085,0.1,287.3347,1594247654436,,,,
Fix,GT,37.4283836000,-122.0729256000,-28.466253257685025,9.702625,0.1,276.87814,1594247655436,,,,
Fix,GT,37.4283874000,-122.0730388000,-28.446800231933594,10.372174,0.1,270.92493,1594247656436,,,,
Fix,GT,37.4283858000,-122.0731605000,-28.3137114868573,11.143104,0.1,268.45444,1594247657436,,,,
Fix,GT,37.4283824000,-122.0732908000,-28.25009099400586,11.931205,0.1,268.3655,1594247658436,,,,
Fix,GT,37.4283806000,-122.0734292000,-28.13518054654628,12.491703,0.1,269.48965,1594247659436,,,,
Fix,GT,37.4283803000,-122.0735723000,-28.039704017303734,12.885106,0.1,270.8026,1594247660436,,,,
Fix,GT,37.4283826000,-122.0737212000,-28.040881426834858,13.501354,0.1,271.10922,1594247661436,,,,
Fix,GT,37.4283839000,-122.0738770000,-28.124341622841257,13.989707,0.1,270.41852,1594247662436,,,,
Fix,GT,37.4283842000,-122.0740348000,-28.218977400495305,13.898041,0.1,270.34885,1594247663436,,,,
Fix,GT,37.4283847000,-122.0741911000,-28.29943018457368,13.754798,0.1,270.2922,1594247664436,,,,
Fix,GT,37.4283842000,-122.0743461000,-28.37179338199394,13.671261,0.1,269.7859,1594247665436,,,,
Fix,GT,37.4283832000,-122.0745000000,-28.478438340593925,13.5460415,0.1,269.68857,1594247666436,,,,
Fix,GT,37.4283819000,-122.0746521000,-28.616147564693392,13.436537,0.1,269.56915,1594247667436,,,,
Fix,GT,37.4283818000,-122.0748039000,-28.92486414106287,13.470114,0.1,270.5106,1594247668436,,,,
Fix,GT,37.4283832000,-122.0749566000,-29.23194553956762,13.548315,0.1,270.90753,1594247669436,,,,
Fix,GT,37.4283843000,-122.0751099000,-29.581679850674846,13.550674,0.1,270.52335,1594247670436,,,,
Fix,GT,37.4283844000,-122.0752624000,-29.850510202283203,13.467445,0.1,270.07816,1594247671436,,,,
Fix,GT,37.4283842000,-122.0754164000,-30.03134031488287,13.86798,0.1,270.08893,1594247672436,,,,
Fix,GT,37.4283837000,-122.0755754000,-30.090977083875316,14.251087,0.1,269.86057,1594247673436,,,,
Fix,GT,37.4283831000,-122.0757374000,-30.12779908991456,14.336536,0.1,269.90018,1594247674436,,,,
Fix,GT,37.4283827000,-122.0758984000,-30.173163450429797,14.190135,0.1,270.01715,1594247675436,,,,
Fix,GT,37.4283826000,-122.0760581000,-30.2186146445365,14.080566,0.1,270.13373,1594247676436,,,,
Fix,GT,37.4283819000,-122.0762166000,-30.25497663505223,13.958284,0.1,269.3275,1594247677436,,,,
Fix,GT,37.4283762000,-122.0763733000,-30.32072867214265,13.78054,0.1,265.86325,1594247678436,,,,
Fix,GT,37.4283606000,-122.0765267000,-30.243623162863287,13.555751,0.1,260.94998,1594247679436,,,,
Fix,GT,37.4283354000,-122.0766754000,-30.186171248346,13.333592,0.1,256.13214,1594247680436,,,,
Fix,GT,37.4283019000,-122.0768197000,-30.132526094690206,13.319962,0.1,253.04234,1594247681436,,,,
Fix,GT,37.4282645000,-122.0769634000,-30.086897266194057,13.429009,0.1,251.61266,1594247682436,,,,
Fix,GT,37.4282255000,-122.0771076000,-30.02698769935563,13.505883,0.1,251.64957,1594247683436,,,,
Fix,GT,37.4281900000,-122.0772533000,-29.990625015186197,13.470605,0.1,254.60616,1594247684436,,,,
Fix,GT,37.4281625000,-122.0773998000,-30.00625136795577,13.067673,0.1,258.58105,1594247685436,,,,
Fix,GT,37.4281433000,-122.0775395000,-30.05816367841635,12.019466,0.1,261.3325,1594247686436,,,,
Fix,GT,37.4281299000,-122.0776662000,-30.100615509333238,10.506291,0.1,263.75604,1594247687436,,,,
Fix,GT,37.4281246000,-122.0777737000,-30.167065916834133,8.536469,0.1,267.93228,1594247688436,,,,
Fix,GT,37.4281238000,-122.0778573000,-30.202986709890865,6.269068,0.1,269.76465,1594247689436,,,,
Fix,GT,37.4281233000,-122.0779148000,-30.245245471083138,3.936283,0.1,269.43866,1594247690436,,,,
Fix,GT,37.4281225000,-122.0779575000,-30.335342957025773,3.798111,0.1,268.87775,1594247691436,,,,
Fix,GT,37.4281198000,-122.0780024000,-30.458332323336037,4.276736,0.1,264.6036,1594247692436,,,,
Fix,GT,37.4281067000,-122.0780525000,-30.61513884230908,4.913063,0.1,249.84367,1594247693436,,,,
Fix,GT,37.4280799000,-122.0781022000,-30.578164354621663,5.6738725,0.1,233.75389,1594247694436,,,,
Fix,GT,37.4280368000,-122.0781475000,-30.55779136673766,6.693207,0.1,215.88406,1594247695436,,,,
Fix,GT,37.4279764000,-122.0781770000,-30.62916495111523,7.552594,0.1,196.08205,1594247696436,,,,
Fix,GT,37.4279045000,-122.0781847000,-30.67234194351431,8.445845,0.1,182.1551,1594247697436,,,,
Fix,GT,37.4278233000,-122.0781838000,-30.715438546741552,9.666139,0.1,179.0172,1594247698436,,,,
Fix,GT,37.4277302000,-122.0781806000,-30.73843735667515,10.935398,0.1,178.14145,1594247699436,,,,
Fix,GT,37.4276273000,-122.0781741000,-30.729995163434182,11.881416,0.1,176.72981,1594247700436,,,,
Fix,GT,37.4275176000,-122.0781640000,-30.737897937429352,12.531074,0.1,175.4369,1594247701436,,,,
Fix,GT,37.4274025000,-122.0781501000,-30.67998669114752,13.125452,0.1,174.20299,1594247702436,,,,
Fix,GT,37.4272821000,-122.0781347000,-30.64380164873006,13.743824,0.1,174.99187,1594247703436,,,,
Fix,GT,37.4271559000,-122.0781239000,-30.63053581148415,14.328274,0.1,177.02827,1594247704436,,,,
Fix,GT,37.4270248000,-122.0781158000,-30.590349232023982,14.8256,0.1,177.44952,1594247705436,,,,
Fix,GT,37.4268884000,-122.0781073000,-30.56307473720915,15.517399,0.1,177.19043,1594247706436,,,,
Fix,GT,37.4267446000,-122.0780973000,-30.517986038595268,16.40918,0.1,177.06032,1594247707436,,,,
Fix,GT,37.4265936000,-122.0780889000,-30.438986781359063,17.125872,0.1,178.01782,1594247708436,,,,
Fix,GT,37.4264374000,-122.0780829000,-30.375800181156364,17.514492,0.1,178.6599,1594247709436,,,,
Fix,GT,37.4262787000,-122.0780799000,-30.316357102453367,17.690216,0.1,180.35258,1594247710436,,,,
Fix,GT,37.4261204000,-122.0780852000,-30.249446289945354,17.439535,0.1,182.50536,1594247711436,,,,
Fix,GT,37.4259645000,-122.0780952000,-30.19062209463158,17.316082,0.1,183.5525,1594247712436,,,,
Fix,GT,37.4258078000,-122.0781084000,-30.136075591308668,17.552872,0.1,184.24821,1594247713436,,,,
Fix,GT,37.4256492000,-122.0781231000,-30.088526155399336,17.733059,0.1,184.31918,1594247714436,,,,
Fix,GT,37.4254892000,-122.0781362000,-30.053801478558796,17.828352,0.1,183.43977,1594247715436,,,,
Fix,GT,37.4253287000,-122.0781456000,-29.972357252298934,17.839216,0.1,182.46982,1594247716436,,,,
Fix,GT,37.4251681000,-122.0781517000,-29.920985923080366,17.842997,0.1,181.3653,1594247717436,,,,
Fix,GT,37.4250070000,-122.0781540000,-29.881251356423377,17.929745,0.1,180.23729,1594247718436,,,,
Fix,GT,37.4248449000,-122.0781518000,-29.807623580897825,18.0345,0.1,178.88785,1594247719436,,,,
Fix,GT,37.4246822000,-122.0781457000,-29.733156075282636,18.081352,0.1,178.30115,1594247720436,,,,
Fix,GT,37.4245196000,-122.0781376000,-29.697985468034176,17.98735,0.1,177.5639,1594247721436,,,,
Fix,GT,37.4243586000,-122.0781269000,-29.61462259891323,17.813267,0.1,176.82448,1594247722436,,,,
Fix,GT,37.4241991000,-122.0781141000,-29.564985361465403,17.650188,0.1,176.25537,1594247723436,,,,
Fix,GT,37.4240413000,-122.0780993000,-29.582534588310182,17.443584,0.1,175.74835,1594247724436,,,,
Fix,GT,37.4238865000,-122.0780849000,-29.46363090574198,16.69769,0.1,176.26642,1594247725436,,,,
Fix,GT,37.4237476000,-122.0780742000,-29.408622542800003,14.055693,0.1,177.28769,1594247726436,,,,
Fix,GT,37.4236345000,-122.0780688000,-29.37762328287522,11.0877495,0.1,178.7358,1594247727436,,,,
Fix,GT,37.4235478000,-122.0780719000,-29.383615737887908,8.189691,0.1,185.54927,1594247728436,,,,
Fix,GT,37.4234848000,-122.0780994000,-29.43670366221255,7.2413883,0.1,206.68422,1594247729436,,,,
Fix,GT,37.4234419000,-122.0781570000,-29.460065850434034,7.002657,0.1,234.75523,1594247730436,,,,
Fix,GT,37.4234247000,-122.0782348000,-29.520888062231847,7.617984,0.1,260.1145,1594247731436,,,,
Fix,GT,37.4234205000,-122.0783258000,-29.471713331557282,8.524345,0.1,267.77316,1594247732436,,,,
Fix,GT,37.4234175000,-122.0784274000,-29.41407526878902,9.406151,0.1,268.12555,1594247733436,,,,
Fix,GT,37.4234132000,-122.0785390000,-29.339898130748452,10.348469,0.1,267.0491,1594247734436,,,,
Fix,GT,37.4234053000,-122.0786601000,-29.243897801267394,11.086523,0.1,265.01392,1594247735436,,,,
Fix,GT,37.4233969000,-122.0787892000,-29.154809358047146,11.86467,0.1,266.2652,1594247736436,,,,
Fix,GT,37.4233915000,-122.0789273000,-29.046260361844134,12.592955,0.1,267.73517,1594247737436,,,,
Fix,GT,37.4233871000,-122.0790738000,-28.943453789791477,13.377384,0.1,268.08643,1594247738436,,,,
Fix,GT,37.4233822000,-122.0792286000,-28.81253450278973,14.003726,0.1,267.8549,1594247739436,,,,
Fix,GT,37.4233765000,-122.0793887000,-28.739719326865384,14.329382,0.1,267.25778,1594247740436,,,,
Fix,GT,37.4233688000,-122.0795523000,-28.587082993581134,14.584549,0.1,266.38715,1594247741436,,,,
Fix,GT,37.4233589000,-122.0797147000,-28.465259100758885,14.098871,0.1,265.2734,1594247742436,,,,
Fix,GT,37.4233472000,-122.0798671000,-28.365261476504656,12.839712,0.1,264.4427,1594247743436,,,,
Fix,GT,37.4233358000,-122.0800009000,-28.287349755112928,10.950867,0.1,263.8842,1594247744436,,,,
Fix,GT,37.4233254000,-122.0801143000,-28.251349392025247,9.621733,0.1,263.53394,1594247745436,,,,
Fix,GT,37.4233155000,-122.0802207000,-28.234163574436025,9.419532,0.1,263.42154,1594247746436,,,,
Fix,GT,37.4233052000,-122.0803310000,-28.190447165387013,10.443056,0.1,263.47037,1594247747436,,,,
Fix,GT,37.4232931000,-122.0804561000,-28.117800828283976,11.838169,0.1,263.2172,1594247748436,,,,
Fix,GT,37.4232795000,-122.0805959000,-28.2112440761357,13.029469,0.1,263.11575,1594247749436,,,,
Fix,GT,37.4232651000,-122.0807471000,-28.28306666993126,13.944895,0.1,263.345,1594247750436,,,,
Fix,GT,37.4232497000,-122.0809083000,-28.334254101474528,14.761856,0.1,263.29626,1594247751436,,,,
Fix,GT,37.4232340000,-122.0810773000,-28.44606593095898,15.357256,0.1,263.75595,1594247752436,,,,
Fix,GT,37.4232187000,-122.0812526000,-28.57070494378206,15.807192,0.1,263.97906,1594247753436,,,,
Fix,GT,37.4232032000,-122.0814316000,-28.689517944089346,16.077911,0.1,264.00052,1594247754436,,,,
Fix,GT,37.4231882000,-122.0816135000,-28.850244880553817,16.285717,0.1,264.41534,1594247755436,,,,
Fix,GT,37.4231730000,-122.0817975000,-28.970244861486208,16.469643,0.1,264.08954,1594247756436,,,,
Fix,GT,37.4231569000,-122.0819838000,-29.115882084632176,16.730042,0.1,264.00104,1594247757436,,,,
Fix,GT,37.4231407000,-122.0821739000,-29.2613317546203,17.111864,0.1,264.20963,1594247758436,,,,
Fix,GT,37.4231251000,-122.0823686000,-29.39042251649539,17.533144,0.1,264.5936,1594247759436,,,,
Fix,GT,37.4231108000,-122.0825680000,-29.540244561674626,17.918442,0.1,265.5666,1594247760436,,,,
Fix,GT,37.4231000000,-122.0827720000,-29.68534137422455,18.269257,0.1,267.0202,1594247761436,,,,
Fix,GT,37.4230930000,-122.0829799000,-29.792066766707194,18.576553,0.1,268.3715,1594247762436,,,,
Fix,GT,37.4230899000,-122.0831913000,-29.849251762212305,18.851213,0.1,269.74805,1594247763436,,,,
Fix,GT,37.4230901000,-122.0834057000,-29.891066484979206,19.134153,0.1,270.70773,1594247764436,,,,
Fix,GT,37.4230939000,-122.0836232000,-29.946978843484658,19.351444,0.1,271.95654,1594247765436,,,,
Fix,GT,37.4231013000,-122.0838427000,-29.880534037419693,19.532972,0.1,273.15567,1594247766436,,,,
Fix,GT,37.4231126000,-122.0840634000,-29.821445930001005,19.596712,0.1,274.50046,1594247767436,,,,
Fix,GT,37.4231286000,-122.0842826000,-29.757711748523207,19.41158,0.1,276.2545,1594247768436,,,,
Fix,GT,37.4231491000,-122.0845014000,-29.69834815866875,19.63844,0.1,277.3481,1594247769436,,,,
Fix,GT,37.4231734000,-122.0847225000,-29.627623278225656,19.882391,0.1,278.51462,1594247770436,,,,
Fix,GT,37.4232005000,-122.0849449000,-29.42255205720096,19.897312,0.1,279.14886,1594247771436,,,,
Fix,GT,37.4232300000,-122.0851667000,-28.998116367863076,19.931578,0.1,280.43326,1594247772436,,,,
Fix,GT,37.4232642000,-122.0853881000,-28.294134043813642,20.00589,0.1,281.58948,1594247773436,,,,
Fix,GT,37.4233015000,-122.0856089000,-27.54030936764468,19.906872,0.1,282.6021,1594247774436,,,,
Fix,GT,37.4233410000,-122.0858284000,-26.814301502728824,20.056248,0.1,283.0175,1594247775436,,,,
Fix,GT,37.4233822000,-122.0860515000,-26.282099948021028,20.467457,0.1,283.50595,1594247776436,,,,
Fix,GT,37.4234259000,-122.0862773000,-25.992180214643327,20.65221,0.1,284.0585,1594247777436,,,,
Fix,GT,37.4234718000,-122.0865049000,-25.926729221814526,20.944613,0.1,284.7099,1594247778436,,,,
Fix,GT,37.4235202000,-122.0867360000,-26.02560746967731,21.348427,0.1,285.0268,1594247779436,,,,
Fix,GT,37.4235700000,-122.0869706000,-26.319583211326744,21.642715,0.1,284.84824,1594247780436,,,,
Fix,GT,37.4236183000,-122.0872087000,-26.861300519382837,21.827932,0.1,284.21985,1594247781436,,,,
Fix,GT,37.4236658000,-122.0874488000,-27.58610693587042,21.915504,0.1,284.05612,1594247782436,,,,
Fix,GT,37.4237125000,-122.0876892000,-28.40192136763335,21.889414,0.1,283.48828,1594247783436,,,,
Fix,GT,37.4237590000,-122.0879288000,-29.137663433837815,21.741503,0.1,284.4902,1594247784436,,,,
Fix,GT,37.4238083000,-122.0881651000,-29.569510880845883,21.508427,0.1,284.85587,1594247785436,,,,
Fix,GT,37.4238569000,-122.0883984000,-29.819978058374318,21.102608,0.1,284.6693,1594247786436,,,,
Fix,GT,37.4239032000,-122.0886260000,-29.880792228585165,20.459557,0.1,284.09,1594247787436,,,,
Fix,GT,37.4239443000,-122.0888444000,-29.952068243075473,19.083895,0.1,282.6196,1594247788436,,,,
Fix,GT,37.4239748000,-122.0890464000,-30.00506595555072,17.257452,0.1,279.05377,1594247789436,,,,
Fix,GT,37.4239910000,-122.0892291000,-30.080978640616877,15.2760935,0.1,274.05185,1594247790436,,,,
Fix,GT,37.4239925000,-122.0893927000,-30.1198898893183,13.703184,0.1,268.38596,1594247791436,,,,
Fix,GT,37.4239847000,-122.0895381000,-30.097985949488475,12.035692,0.1,264.75446,1594247792436,,,,
Fix,GT,37.4239704000,-122.0896635000,-30.01380868133981,10.35887,0.1,260.20386,1594247793436,,,,
Fix,GT,37.4239515000,-122.0897662000,-29.90508369172676,8.125062,0.1,255.72478,1594247794436,,,,
Fix,GT,37.4239343000,-122.0898398000,-29.823534086773464,5.391941,0.1,253.21301,1594247795436,,,,
Fix,GT,37.4239224000,-122.0898858000,-29.774259022766444,3.7700818,0.1,252.25987,1594247796436,,,,
Fix,GT,37.4239118000,-122.0899261000,-29.74971231047425,4.067672,0.1,251.64732,1594247797436,,,,
Fix,GT,37.4238968000,-122.0899813000,-29.64918847157503,6.351717,0.1,251.14684,1594247798436,,,,
Fix,GT,37.4238743000,-122.0900599000,-29.321084045539465,8.370231,0.1,250.13814,1594247799436,,,,
Fix,GT,37.4238448000,-122.0901577000,-29.108163265059204,9.971219,0.1,249.24161,1594247800436,,,,
Fix,GT,37.4238098000,-122.0902701000,-29.231146484781334,11.416048,0.1,248.66895,1594247801436,,,,
Fix,GT,37.4237696000,-122.0903964000,-29.378068155719006,12.563348,0.1,248.16074,1594247802436,,,,
Fix,GT,37.4237252000,-122.0905318000,-29.356623329362947,13.364934,0.1,247.41216,1594247803436,,,,
Fix,GT,37.4236741000,-122.0906742000,-29.352349559096865,14.214958,0.1,244.66081,1594247804436,,,,
Fix,GT,37.4236117000,-122.0908176000,-29.36697827553678,14.594959,0.1,239.26152,1594247805436,,,,
Fix,GT,37.4235379000,-122.0909556000,-29.415703821143495,14.847284,0.1,234.6778,1594247806436,,,,
Fix,GT,37.4234544000,-122.0910887000,-29.527705090770098,15.078414,0.1,229.70322,1594247807436,,,,
Fix,GT,37.4233600000,-122.0912130000,-29.684518744781315,15.317116,0.1,224.4522,1594247808436,,,,
Fix,GT,37.4232559000,-122.0913279000,-29.81715669018132,15.350868,0.1,219.3872,1594247809436,,,,
Fix,GT,37.4231458000,-122.0914310000,-29.920616116226142,15.1131115,0.1,215.75323,1594247810436,,,,
Fix,GT,37.4230358000,-122.0915283000,-29.92771269020875,14.760334,0.1,215.5304,1594247811436,,,,
Fix,GT,37.4229325000,-122.0916290000,-29.811349878378564,14.332754,0.1,221.0303,1594247812436,,,,
Fix,GT,37.4228449000,-122.0917443000,-29.792446164571857,14.078626,0.1,231.09235,1594247813436,,,,
Fix,GT,37.4227737000,-122.0918779000,-29.531091049795236,14.564134,0.1,240.08122,1594247814436,,,,
Fix,GT,37.4227144000,-122.0920295000,-29.34663191784489,15.421644,0.1,245.51834,1594247815436,,,,
Fix,GT,37.4226561000,-122.0921931000,-29.169623040398392,16.26894,0.1,246.36705,1594247816436,,,,
Fix,GT,37.4225961000,-122.0923653000,-29.138622901996314,16.987356,0.1,246.77585,1594247817436,,,,
Fix,GT,37.4225347000,-122.0925435000,-29.106074682529652,17.30374,0.1,246.95723,1594247818436,,,,
Fix,GT,37.4224735000,-122.0927217000,-29.056180855203365,17.035992,0.1,247.03442,1594247819436,,,,
Fix,GT,37.4224154000,-122.0928977000,-28.97680800366635,16.779507,0.1,248.14764,1594247820436,,,,
Fix,GT,37.4223608000,-122.0930749000,-28.976438219813645,16.807331,0.1,250.91878,1594247821436,,,,
Fix,GT,37.4223194000,-122.0932552000,-29.005244887704976,16.433308,0.1,257.18625,1594247822436,,,,
Fix,GT,37.4222987000,-122.0934363000,-29.198066135606382,16.104212,0.1,265.97232,1594247823436,,,,
Fix,GT,37.4223040000,-122.0936161000,-29.33814691753645,15.973809,0.1,277.45667,1594247824436,,,,
Fix,GT,37.4223418000,-122.0937917000,-29.362180607665323,16.496283,0.1,290.71048,1594247825436,,,,
Fix,GT,37.4224102000,-122.0939623000,-29.142179546535715,17.456429,0.1,301.31708,1594247826436,,,,
Fix,GT,37.4225037000,-122.0941284000,-29.109896750562143,18.759153,0.1,307.38446,1594247827436,,,,
Fix,GT,37.4226127000,-122.0943020000,-29.125082934566308,20.367296,0.1,308.91693,1594247828436,,,,
Fix,GT,37.4227340000,-122.0944868000,-29.153526912870802,21.998827,0.1,310.19083,1594247829436,,,,
Fix,GT,37.4228664000,-122.0946819000,-29.19970390620756,23.22097,0.1,310.73,1594247830436,,,,
Fix,GT,37.4230062000,-122.0948853000,-29.230349458875764,24.31652,0.1,311.05692,1594247831436,,,,
Fix,GT,37.4231530000,-122.0950963000,-29.245888488378398,25.216076,0.1,311.49292,1594247832436,,,,
Fix,GT,37.4233049000,-122.0953129000,-29.246801376342773,25.821415,0.1,311.4827,1594247833436,,,,
Fix,GT,37.4234603000,-122.0955352000,-29.252526629675685,26.497921,0.1,311.291,1594247834436,,,,
Fix,GT,37.4236185000,-122.0957650000,-29.261438065736456,27.193886,0.1,310.69168,1594247835436,,,,
Fix,GT,37.4237792000,-122.0960028000,-29.26179989392159,27.823536,0.1,310.56195,1594247836436,,,,
Fix,GT,37.4239439000,-122.0962440000,-29.31042992434118,28.375217,0.1,311.0406,1594247837436,,,,
Fix,GT,37.4241136000,-122.0964852000,-29.425978317968998,28.581902,0.1,312.04272,1594247838436,,,,
Fix,GT,37.4242880000,-122.0967233000,-29.47788971295006,28.675983,0.1,313.30658,1594247839436,,,,
Fix,GT,37.4244664000,-122.0969582000,-29.48552555372885,28.739536,0.1,314.22955,1594247840436,,,,
Fix,GT,37.4246476000,-122.0971900000,-29.535889397766653,28.665474,0.1,315.00214,1594247841436,,,,
Fix,GT,37.4248304000,-122.0974177000,-29.562704093796356,28.535793,0.1,315.73837,1594247842436,,,,
Fix,GT,37.4250151000,-122.0976420000,-29.615251354620682,28.565754,0.1,316.39996,1594247843436,,,,
Fix,GT,37.4252022000,-122.0978640000,-29.636704192311754,28.61933,0.1,317.06088,1594247844436,,,,
Fix,GT,37.4253918000,-122.0980837000,-29.692703948648045,28.690052,0.1,317.73068,1594247845436,,,,
Fix,GT,37.4255837000,-122.0983008000,-29.707615208945185,28.674534,0.1,318.3621,1594247846436,,,,
Fix,GT,37.4257773000,-122.0985149000,-29.765889821907535,28.637007,0.1,319.11475,1594247847436,,,,
Fix,GT,37.4259726000,-122.0987255000,-29.721164679243202,28.510841,0.1,319.78217,1594247848436,,,,
Fix,GT,37.4261682000,-122.0989317000,-29.723615957817742,28.1944,0.1,320.4214,1594247849436,,,,
Fix,GT,37.4263628000,-122.0991336000,-29.722712747875164,27.837708,0.1,320.7587,1594247850436,,,,
Fix,GT,37.4265559000,-122.0993311000,-29.736889802188216,27.48163,0.1,320.9841,1594247851436,,,,
Fix,GT,37.4267461000,-122.0995268000,-29.800979213729704,27.13668,0.1,320.60257,1594247852436,,,,
Fix,GT,37.4269332000,-122.0997216000,-29.84816391041886,26.91441,0.1,320.09317,1594247853436,,,,
Fix,GT,37.4271183000,-122.0999171000,-29.891978621285716,26.8502,0.1,319.92435,1594247854436,,,,
Fix,GT,37.4273033000,-122.1001129000,-29.923977317738093,26.897366,0.1,319.88608,1594247855436,,,,
Fix,GT,37.4274887000,-122.1003100000,-29.94788992263358,27.031654,0.1,319.78152,1594247856436,,,,
Fix,GT,37.4276742000,-122.1005079000,-29.99880027770996,27.046926,0.1,319.6626,1594247857436,,,,
Fix,GT,37.4278600000,-122.1007072000,-30.035155379482603,27.299486,0.1,319.52637,1594247858436,,,,
Fix,GT,37.4280487000,-122.1009067000,-30.1501560452308,27.551134,0.1,320.16577,1594247859436,,,,
Fix,GT,37.4282398000,-122.1011074000,-30.232898904285378,27.646282,0.1,320.37122,1594247860436,,,,
Fix,GT,37.4284309000,-122.1013051000,-30.295430550786364,27.40854,0.1,320.73355,1594247861436,,,,
Fix,GT,37.4286213000,-122.1015022000,-30.325439358714277,27.386852,0.1,320.47864,1594247862436,,,,
Fix,GT,37.4288103000,-122.1017015000,-30.23771194234496,27.428337,0.1,319.88428,1594247863436,,,,
Fix,GT,37.4289994000,-122.1019027000,-30.1537107176037,27.619732,0.1,319.9325,1594247864436,,,,
Fix,GT,37.4291900000,-122.1021054000,-30.09380940687413,27.812347,0.1,319.86163,1594247865436,,,,
Fix,GT,37.4293823000,-122.1023089000,-30.08634858103119,28.012526,0.1,320.21588,1594247866436,,,,
Fix,GT,37.4295764000,-122.1025126000,-30.052260626656164,28.14236,0.1,320.0295,1594247867436,,,,
Fix,GT,37.4297706000,-122.1027182000,-30.000074988969914,28.243015,0.1,319.98782,1594247868436,,,,
Fix,GT,37.4299651000,-122.1029236000,-29.9913485768966,28.21957,0.1,320.147,1594247869436,,,,
Fix,GT,37.4301604000,-122.1031284000,-29.96898529987118,28.277386,0.1,320.36102,1594247870436,,,,
Fix,GT,37.4303564000,-122.1033322000,-29.958527225195212,28.209797,0.1,320.4715,1594247871436,,,,
Fix,GT,37.4305518000,-122.1035347000,-29.960260672200093,28.080364,0.1,320.5477,1594247872436,,,,
Fix,GT,37.4307461000,-122.1037371000,-29.89826039670743,27.998459,0.1,320.2349,1594247873436,,,,
Fix,GT,37.4309392000,-122.1039411000,-29.718365232175074,28.054413,0.1,319.8276,1594247874436,,,,
Fix,GT,37.4311323000,-122.1041468000,-29.3973732847669,28.194689,0.1,319.96518,1594247875436,,,,
Fix,GT,37.4313274000,-122.1043521000,-29.071647975539747,28.317259,0.1,320.22757,1594247876436,,,,
Fix,GT,37.4315232000,-122.1045580000,-28.71001029513343,28.424778,0.1,320.00336,1594247877436,,,,
Fix,GT,37.4317195000,-122.1047655000,-28.408366599977,28.53359,0.1,319.99637,1594247878436,,,,
Fix,GT,37.4319160000,-122.1049732000,-28.191269600257954,28.510845,0.1,320.07465,1594247879436,,,,
Fix,GT,37.4321126000,-122.1051801000,-28.090148344091062,28.482515,0.1,320.2869,1594247880436,,,,
Fix,GT,37.4323103000,-122.1053865000,-28.105178808660526,28.675053,0.1,320.4419,1594247881436,,,,
Fix,GT,37.4325101000,-122.1055952000,-28.15260689585631,29.042912,0.1,320.2907,1594247882436,,,,
Fix,GT,37.4327128000,-122.1058085000,-28.362237084581068,29.708805,0.1,320.0717,1594247883436,,,,
Fix,GT,37.4329196000,-122.1060269000,-28.67667875339305,30.2426,0.1,320.02478,1594247884436,,,,
Fix,GT,37.4331294000,-122.1062477000,-29.028864624350547,30.549932,0.1,320.34106,1594247885436,,,,
Fix,GT,37.4333418000,-122.1064689000,-29.365688765055097,30.704748,0.1,320.52548,1594247886436,,,,
Fix,GT,37.4335554000,-122.1066901000,-29.66933302967618,30.787968,0.1,320.69867,1594247887436,,,,
Fix,GT,37.4337690000,-122.1069119000,-29.759889317951547,30.673347,0.1,320.3681,1594247888436,,,,
Fix,GT,37.4339802000,-122.1071320000,-29.762437509986285,30.292753,0.1,320.49518,1594247889436,,,,
Fix,GT,37.4341886000,-122.1073489000,-29.762800216674805,29.80331,0.1,320.41135,1594247890436,,,,
Fix,GT,37.4343927000,-122.1075628000,-29.78361545206758,29.25159,0.1,320.1824,1594247891436,,,,
Fix,GT,37.4345924000,-122.1077734000,-29.75279998779297,28.644836,0.1,320.03806,1594247892436,,,,
Fix,GT,37.4347880000,-122.1079799000,-29.779261772823872,28.133959,0.1,320.1381,1594247893436,,,,
Fix,GT,37.4349806000,-122.1081827000,-29.784624332230635,27.690607,0.1,320.1013,1594247894436,,,,
Fix,GT,37.4351700000,-122.1083826000,-29.749534229273877,27.279696,0.1,320.08313,1594247895436,,,,
Fix,GT,37.4353576000,-122.1085797000,-29.758254018498462,27.119408,0.1,320.2489,1594247896436,,,,
Fix,GT,37.4355457000,-122.1087775000,-29.793800354003906,27.413937,0.1,320.0986,1594247897436,,,,
Fix,GT,37.4357362000,-122.1089786000,-29.78289093099704,27.863926,0.1,319.96225,1594247898436,,,,
Fix,GT,37.4359294000,-122.1091836000,-29.770260095167714,28.29018,0.1,319.93707,1594247899436,,,,
Fix,GT,37.4361250000,-122.1093905000,-29.737526566795168,28.494205,0.1,320.18015,1594247900436,,,,
Fix,GT,37.4363226000,-122.1095970000,-29.710163430298962,28.57378,0.1,320.5174,1594247901436,,,,
Fix,GT,37.4365210000,-122.1098031000,-29.695075553354116,28.630087,0.1,320.53354,1594247902436,,,,
Fix,GT,37.4367198000,-122.1100105000,-29.695438070570162,28.785896,0.1,320.1469,1594247903436,,,,
Fix,GT,37.4369194000,-122.1102211000,-29.66871288708535,29.138577,0.1,319.98273,1594247904436,,,,
Fix,GT,37.4371214000,-122.1104353000,-29.636172720272782,29.5933,0.1,319.9589,1594247905436,,,,
Fix,GT,37.4373266000,-122.1106526000,-29.604614428845764,30.00309,0.1,319.99347,1594247906436,,,,
Fix,GT,37.4375341000,-122.1108722000,-29.570164923597076,30.282495,0.1,320.15756,1594247907436,,,,
Fix,GT,37.4377444000,-122.1110927000,-29.532623826099552,30.52909,0.1,320.353,1594247908436,,,,
Fix,GT,37.4379562000,-122.1113140000,-29.528624113512933,30.651093,0.1,320.33414,1594247909436,,,,
Fix,GT,37.4381685000,-122.1115352000,-29.498252919840525,30.56446,0.1,320.53595,1594247910436,,,,
Fix,GT,37.4383799000,-122.1117546000,-29.476889421105056,30.298315,0.1,320.5147,1594247911436,,,,
Fix,GT,37.4385887000,-122.1119718000,-29.469977805661756,29.902939,0.1,320.35614,1594247912436,,,,
Fix,GT,37.4387943000,-122.1121876000,-29.48034765304982,29.66846,0.1,320.12622,1594247913436,,,,
Fix,GT,37.4389988000,-122.1124038000,-29.41600219481404,29.785583,0.1,319.91876,1594247914436,,,,
Fix,GT,37.4392046000,-122.1126216000,-29.204084082419286,29.951962,0.1,320.02603,1594247915436,,,,
Fix,GT,37.4394121000,-122.1128403000,-28.926922317186325,30.197006,0.1,320.22366,1594247916436,,,,
Fix,GT,37.4396210000,-122.1130598000,-28.62346207823998,30.276224,0.1,320.17218,1594247917436,,,,
Fix,GT,37.4398298000,-122.1132791000,-28.337276232457157,30.146801,0.1,320.2651,1594247918436,,,,
Fix,GT,37.4400375000,-122.1134969000,-28.19951940172905,29.964676,0.1,320.24005,1594247919436,,,,
Fix,GT,37.4402444000,-122.1137146000,-28.198438324846393,29.996574,0.1,320.10593,1594247920436,,,,
Fix,GT,37.4404515000,-122.1139331000,-28.211962888523885,30.105564,0.1,320.15207,1594247921436,,,,
Fix,GT,37.4406601000,-122.1141514000,-28.491591206690373,30.19339,0.1,320.5395,1594247922436,,,,
Fix,GT,37.4408705000,-122.1143694000,-28.848237460757275,30.388895,0.1,320.57697,1594247923436,,,,
Fix,GT,37.4410818000,-122.1145892000,-29.182963236717455,30.529274,0.1,320.38538,1594247924436,,,,
Fix,GT,37.4412935000,-122.1148108000,-29.376518776993862,30.728107,0.1,320.2393,1594247925436,,,,
Fix,GT,37.4415067000,-122.1150341000,-29.411800384521484,30.9043,0.1,320.24295,1594247926436,,,,
Fix,GT,37.4417206000,-122.1152581000,-29.382800180232493,30.91656,0.1,320.31665,1594247927436,,,,
Fix,GT,37.4419341000,-122.1154819000,-29.35816328036509,30.836779,0.1,320.19687,1594247928436,,,,
Fix,GT,37.4421465000,-122.1157051000,-29.36707553779695,30.689129,0.1,320.2803,1594247929436,,,,
Fix,GT,37.4423587000,-122.1159272000,-29.36425989525401,30.653603,0.1,320.21838,1594247930436,,,,
Fix,GT,37.4425702000,-122.1161496000,-29.353438316540633,30.582458,0.1,320.05396,1594247931436,,,,
Fix,GT,37.4427802000,-122.1163721000,-29.3665261120899,30.449093,0.1,319.9215,1594247932436,,,,
Fix,GT,37.4429891000,-122.1165940000,-29.377615373141225,30.328085,0.1,319.97998,1594247933436,,,,
Fix,GT,37.4431975000,-122.1168152000,-29.378711071382668,30.272097,0.1,319.8815,1594247934436,,,,
Fix,GT,37.4434053000,-122.1170366000,-29.361527135174583,30.270746,0.1,319.9229,1594247935436,,,,
Fix,GT,37.4436139000,-122.1172572000,-29.377437268475205,30.26117,0.1,320.11453,1594247936436,,,,
Fix,GT,37.4438225000,-122.1174765000,-29.340614537692375,30.19114,0.1,320.274,1594247937436,,,,
Fix,GT,37.4440312000,-122.1176951000,-29.38951808035563,30.157766,0.1,320.2973,1594247938436,,,,
Fix,GT,37.4442401000,-122.1179133000,-29.410614231026614,30.175182,0.1,320.38342,1594247939436,,,,
Fix,GT,37.4444491000,-122.1181318000,-29.38770291581949,30.254457,0.1,320.2777,1594247940436,,,,
Fix,GT,37.4446581000,-122.1183512000,-29.461438994982927,30.247608,0.1,320.2908,1594247941436,,,,
