MessageType,Provider,LatitudeDegrees,LongitudeDegrees,AltitudeMeters,SpeedMps,AccuracyMeters,BearingDegrees,UnixTimeMillis,SpeedAccuracyMps,BearingAccuracyDegrees,elapsedRealtimeNanos,VerticalAccuracyMeters
Fix,GT,37.4443866000,-122.2326731000,12.097950342236459,0.0012762505,0.1,302.62097,1609800005433,,,,
Fix,GT,37.4443866000,-122.2326731000,12.097949981689453,0.00066692743,0.1,302.6195,1609800006433,,,,
Fix,GT,37.4443866000,-122.2326730000,12.097950342236459,0.0012762503,0.1,302.62112,1609800007433,,,,
Fix,GT,37.4443866000,-122.2326730000,12.097950342236459,0.0023573912,0.1,302.62125,1609800008433,,,,
Fix,GT,37.4443866000,-122.2326730000,12.097949621142448,0.0016879509,0.1,302.62137,1609800009433,,,,
Fix,GT,37.4443866000,-122.2326730000,12.098950025470543,0.002236068,0.1,302.6218,1609800010433,,,,
Fix,GT,37.4443866000,-122.2326730000,12.098950025470543,0.001,0.1,302.622,1609800011433,,,,
Fix,GT,37.4443866000,-122.2326730000,12.099950790405273,0.0030707852,0.1,302.62238,1609800012433,,,,
Fix,GT,37.4443866000,-122.2326730000,12.100949880452447,0.002236068,0.1,302.6231,1609800013433,,,,
Fix,GT,37.4443879000,-122.2326756000,12.09695017048864,0.79336786,0.1,302.47678,1609800014433,,,,
Fix,GT,37.4443938000,-122.2326922000,12.09595012664795,2.327264,0.1,297.48386,1609800015433,,,,
Fix,GT,37.4444007000,-122.2327228000,12.121283950529744,3.028272,0.1,287.6088,1609800016433,,,,
Fix,GT,37.4444015000,-122.2327622000,12.106950399072446,3.9318347,0.1,272.6021,1609800017433,,,,
Fix,GT,37.4443912000,-122.2328131000,12.035622907759546,5.3184147,0.1,254.28806,1609800018433,,,,
Fix,GT,37.4443626000,-122.2328708000,11.844623274267008,6.507373,0.1,235.31544,1609800019433,,,,
Fix,GT,37.4443165000,-122.2329254000,11.566956593875688,7.4603324,0.1,220.46173,1609800020433,,,,
Fix,GT,37.4442581000,-122.2329737000,11.216293996489469,7.9624853,0.1,211.9778,1609800021433,,,,
Fix,GT,37.4441967000,-122.2330226000,10.850625136589883,8.184864,0.1,213.0234,1609800022433,,,,
Fix,GT,37.4441380000,-122.2330792000,10.551623791604698,8.281239,0.1,219.7521,1609800023433,,,,
Fix,GT,37.4440893000,-122.2331474000,10.349622242572366,7.7262616,0.1,231.00967,1609800024433,,,,
Fix,GT,37.4440560000,-122.2332168000,10.128286672091804,7.0023623,0.1,241.22919,1609800025433,,,,
Fix,GT,37.4440304000,-122.2332896000,9.908623505036417,7.0996,0.1,248.0375,1609800026433,,,,
Fix,GT,37.4440155000,-122.2333663000,9.550630389940693,6.8997407,0.1,258.97784,1609800027433,,,,
Fix,GT,37.4440156000,-122.2334443000,9.254622761251198,6.9801745,0.1,273.8298,1609800028433,,,,
Fix,GT,37.4440337000,-122.2335226000,9.089291417094273,7.871601,0.1,288.97455,1609800029433,,,,
Fix,GT,37.4440680000,-122.2336111000,8.862954215496416,9.32323,0.1,297.9124,1609800030433,,,,
Fix,GT,37.4441104000,-122.2337032000,8.709956989649754,9.442295,0.1,300.52628,1609800031433,,,,
Fix,GT,37.4441548000,-122.2337938000,8.49928975442873,9.403557,0.1,301.9597,1609800032433,,,,
Fix,GT,37.4442004000,-122.2338833000,8.305954513140932,9.356934,0.1,302.7891,1609800033433,,,,
Fix,GT,37.4442458000,-122.2339702000,8.114622416617124,8.877135,0.1,303.3869,1609800034433,,,,
Fix,GT,37.4442867000,-122.2340476000,7.9796215675810345,7.363447,0.1,303.28204,1609800035433,,,,
Fix,GT,37.4443193000,-122.2341109000,7.836952550855415,6.0993023,0.1,302.42728,1609800036433,,,,
Fix,GT,37.4443454000,-122.2341637000,7.7196187756066905,4.852566,0.1,301.85388,1609800037433,,,,
Fix,GT,37.4443662000,-122.2342057000,7.637619067167549,3.9826088,0.1,301.84082,1609800038433,,,,
Fix,GT,37.4443824000,-122.2342386000,7.573283939600657,2.7684844,0.1,301.73553,1609800039433,,,,
Fix,GT,37.4443923000,-122.2342587000,7.528950833050089,1.4634662,0.1,301.6653,1609800040433,,,,
Fix,GT,37.4443964000,-122.2342668000,7.508616706610809,0.30739173,0.1,301.63763,1609800041433,,,,
Fix,GT,37.4443967000,-122.2342674000,7.503616910184917,0.002236068,0.1,301.6428,1609800042433,,,,
Fix,GT,37.4443967000,-122.2342674000,7.503950342653695,0.0013330742,0.1,301.64203,1609800043433,,,,
Fix,GT,37.4443968000,-122.2342674000,7.503950342653695,0.001,0.1,301.64075,1609800044433,,,,
Fix,GT,37.4443968000,-122.2342674000,7.503950342653695,0.001,0.1,301.64026,1609800045433,,,,
Fix,GT,37.4443968000,-122.2342674000,7.5029497146606445,0.0016093239,0.1,301.6409,1609800046433,,,,
Fix,GT,37.4443968000,-122.2342674000,7.5029497146606445,0.001,0.1,301.64102,1609800047433,,,,
Fix,GT,37.4443968000,-122.2342674000,7.5029497146606445,0.00066692586,0.1,301.64127,1609800048433,,,,
Fix,GT,37.4443968000,-122.2342674000,7.501949787139893,0.0011379638,0.1,301.64124,1609800049433,,,,
Fix,GT,37.4443968000,-122.2342674000,7.501949787139893,0.001,0.1,301.64136,1609800050433,,,,
Fix,GT,37.4443968000,-122.2342674000,7.501949787139893,0.0011379638,0.1,301.64145,1609800051433,,,,
Fix,GT,37.4443968000,-122.2342674000,7.501949787139893,0.001,0.1,-58.358505,1609800052433,,,,
Fix,GT,37.4443968000,-122.2342674000,7.500949636073415,0.0012762498,0.1,301.64148,1609800053433,,,,
Fix,GT,37.4443968000,-122.2342674000,7.500949859619141,0.017743006,0.1,301.63876,1609800054433,,,,
Fix,GT,37.4443992000,-122.2342725000,7.474284514194181,1.4365036,0.1,301.41385,1609800055433,,,,
Fix,GT,37.4444110000,-122.2343025000,7.403954561659134,4.415675,0.1,296.9468,1609800056433,,,,
Fix,GT,37.4444270000,-122.2343617000,7.418614936979267,6.160238,0.1,286.77274,1609800057433,,,,
Fix,GT,37.4444309000,-122.2344369000,7.505946928140119,7.077793,0.1,269.36804,1609800058433,,,,
Fix,GT,37.4444117000,-122.2345183000,7.661279964742079,8.007118,0.1,247.7424,1609800059433,,,,
Fix,GT,37.4443643000,-122.2346001000,7.702614459099834,9.832674,0.1,229.39142,1609800060433,,,,
Fix,GT,37.4442912000,-122.2346794000,7.852276916348558,11.511934,0.1,216.48729,1609800061433,,,,
Fix,GT,37.4441947000,-122.2347511000,8.136274989797442,13.855501,0.1,208.77586,1609800062433,,,,
Fix,GT,37.4440727000,-122.2348320000,8.56060385500416,16.611874,0.1,207.62985,1609800063433,,,,
Fix,GT,37.4439345000,-122.2349220000,9.147600497314784,17.766453,0.1,207.30672,1609800064433,,,,
Fix,GT,37.4437887000,-122.2350171000,9.550941819212824,18.711578,0.1,207.5454,1609800065433,,,,
Fix,GT,37.4436359000,-122.2351182000,9.850614534399995,19.591808,0.1,207.87875,1609800066433,,,,
Fix,GT,37.4434748000,-122.2352252000,9.984281471638695,20.917238,0.1,207.81763,1609800067433,,,,
Fix,GT,37.4433058000,-122.2353385000,10.159944816076631,21.486513,0.1,208.24847,1609800068433,,,,
Fix,GT,37.4431336000,-122.2354551000,10.383277140159862,21.995697,0.1,208.19043,1609800069433,,,,
Fix,GT,37.4429580000,-122.2355739000,10.704273356606507,22.216923,0.1,208.25885,1609800070433,,,,
Fix,GT,37.4427829000,-122.2356917000,11.196930856058714,21.875433,0.1,208.02655,1609800071433,,,,
Fix,GT,37.4426088000,-122.2358071000,11.996259967282242,21.900867,0.1,207.43805,1609800072433,,,,
Fix,GT,37.4424326000,-122.2359211000,13.086249252262292,22.072376,0.1,207.08267,1609800073433,,,,
Fix,GT,37.4422557000,-122.2360349000,14.444916264859785,22.007229,0.1,207.22746,1609800074433,,,,
Fix,GT,37.4420805000,-122.2361502000,15.655587851347377,21.875004,0.1,207.9657,1609800075433,,,,
Fix,GT,37.4419087000,-122.2362665000,16.72125710089722,21.438856,0.1,208.55263,1609800076433,,,,
Fix,GT,37.4417413000,-122.2363833000,17.684257086019443,21.183876,0.1,209.2812,1609800077433,,,,
Fix,GT,37.4415776000,-122.2365034000,18.544593835279215,20.884163,0.1,210.92711,1609800078433,,,,
Fix,GT,37.4414208000,-122.2366302000,19.45825507943414,20.54699,0.1,214.01651,1609800079433,,,,
Fix,GT,37.4412710000,-122.2367662000,20.534252199443245,20.63915,0.1,217.5093,1609800080433,,,,
Fix,GT,37.4411290000,-122.2369171000,21.573254863188595,20.725489,0.1,222.44244,1609800081433,,,,
Fix,GT,37.4409963000,-122.2370841000,22.76791844187369,21.133102,0.1,227.03767,1609800082433,,,,
Fix,GT,37.4408699000,-122.2372683000,23.94691402188255,22.024307,0.1,230.87537,1609800083433,,,,
Fix,GT,37.4407475000,-122.2374717000,25.27724903034232,23.085266,0.1,234.54514,1609800084433,,,,
Fix,GT,37.4406290000,-122.2376907000,26.70625095019477,23.590475,0.1,236.51492,1609800085433,,,,
Fix,GT,37.4405114000,-122.2379142000,28.055578810860652,23.783207,0.099,236.00734,1609800086433,,,,
Fix,GT,37.4403868000,-122.2381323000,29.536578257160954,23.690237,0.099,232.74854,1609800087433,,,,
Fix,GT,37.4402540000,-122.2383428000,30.841248100363373,23.840214,0.1,230.91591,1609800088433,,,,
Fix,GT,37.4401153000,-122.2385493000,32.044922189744966,23.958385,0.1,228.90019,1609800089433,,,,
Fix,GT,37.4399692000,-122.2387510000,33.264585209660254,24.307007,0.1,226.63379,1609800090433,,,,
Fix,GT,37.4398146000,-122.2389494000,34.46692420734939,24.801592,0.1,224.7238,1609800091433,,,,
Fix,GT,37.4396520000,-122.2391457000,35.58559307907967,25.27418,0.099,222.77412,1609800092433,,,,
Fix,GT,37.4394815000,-122.2393365000,37.00291172995185,25.49603,0.1,220.65282,1609800093433,,,,
Fix,GT,37.4393024000,-122.2395203000,38.45257851239967,25.713913,0.1,217.61436,1609800094433,,,,
Fix,GT,37.4391177000,-122.2396902000,39.75058634499737,25.049515,0.1,214.99052,1609800095433,,,,
Fix,GT,37.4389328000,-122.2398458000,40.84725324997362,24.464851,0.1,212.62149,1609800096433,,,,
Fix,GT,37.4387458000,-122.2399896000,41.8512645379584,24.117968,0.1,210.43431,1609800097433,,,,
Fix,GT,37.4385579000,-122.2401223000,42.483929238880705,23.832531,0.1,208.40823,1609800098433,,,,
Fix,GT,37.4383666000,-122.2402449000,43.01993674843152,23.861763,0.1,205.92285,1609800099433,,,,
Fix,GT,37.4381711000,-122.2403586000,43.409271877711376,24.002567,0.1,204.0238,1609800100433,,,,
Fix,GT,37.4379718000,-122.2404652000,43.64127881542629,24.018326,0.1,202.24976,1609800101433,,,,
Fix,GT,37.4377707000,-122.2405656000,43.8022801303664,24.021374,0.1,201.14644,1609800102433,,,,
Fix,GT,37.4375688000,-122.2406632000,43.858618444951844,24.004105,0.1,200.87833,1609800103433,,,,
Fix,GT,37.4373685000,-122.2407611000,44.164268577800954,23.631744,0.1,201.59433,1609800104433,,,,
Fix,GT,37.4371745000,-122.2408634000,44.56327014620774,23.08211,0.099,203.81653,1609800105433,,,,
Fix,GT,37.4369892000,-122.2409734000,45.119598164822946,22.462181,0.1,206.56071,1609800106433,,,,
Fix,GT,37.4368149000,-122.2410950000,45.744932136260104,21.813065,0.1,211.3887,1609800107433,,,,
Fix,GT,37.4366553000,-122.2412320000,46.60126052588919,21.161617,0.1,217.13101,1609800108433,,,,
Fix,GT,37.4365129000,-122.2413849000,47.459599407792666,20.495338,0.1,223.40044,1609800109433,,,,
Fix,GT,37.4363881000,-122.2415504000,48.13593253905765,19.868694,0.1,228.79424,1609800110433,,,,
Fix,GT,37.4362761000,-122.2417206000,48.88626031785316,19.187386,0.1,231.35367,1609800111433,,,,
Fix,GT,37.4361738000,-122.2418893000,49.722926982408694,18.30642,0.1,233.79822,1609800112433,,,,
Fix,GT,37.4360849000,-122.2420564000,50.43992905589403,17.242144,0.1,238.4705,1609800113433,,,,
Fix,GT,37.4360183000,-122.2422252000,51.09026835890745,16.186707,0.1,248.53156,1609800114433,,,,
Fix,GT,37.4359847000,-122.2423968000,51.680269285338,15.338222,0.1,261.91684,1609800115433,,,,
Fix,GT,37.4359837000,-122.2425664000,52.13126873495321,14.957392,0.1,275.00964,1609800116433,,,,
Fix,GT,37.4360137000,-122.2427317000,52.851268382750845,15.1446495,0.1,287.39566,1609800117433,,,,
Fix,GT,37.4360616000,-122.2428922000,53.50460197155371,15.456646,0.1,291.89856,1609800118433,,,,
Fix,GT,37.4361211000,-122.2430675000,54.35658903613694,18.277195,0.1,293.872,1609800119433,,,,
Fix,GT,37.4361962000,-122.2432690000,55.48591827144355,21.115952,0.1,295.7255,1609800120433,,,,
Fix,GT,37.4362854000,-122.2434929000,56.79791855361191,22.649206,0.1,297.0837,1609800121433,,,,
Fix,GT,37.4363819000,-122.2437196000,58.077583687249444,22.997555,0.1,298.96472,1609800122433,,,,
Fix,GT,37.4364894000,-122.2439476000,59.4822449918413,23.865223,0.1,302.1181,1609800123433,,,,
Fix,GT,37.4366117000,-122.2441711000,60.88724633252832,24.104326,0.1,306.66574,1609800124433,,,,
Fix,GT,37.4367493000,-122.2443864000,62.38857275860357,24.807234,0.1,310.1186,1609800125433,,,,
Fix,GT,37.4368996000,-122.2445987000,63.97657526186299,25.26883,0.099,312.48312,1609800126433,,,,
Fix,GT,37.4370563000,-122.2448093000,65.3965815499007,25.846195,0.1,313.1549,1609800127433,,,,
Fix,GT,37.4372168000,-122.2450247000,66.62658052891493,26.26247,0.1,312.81213,1609800128433,,,,
Fix,GT,37.4373788000,-122.2452443000,67.74825082144662,26.678448,0.1,312.78708,1609800129433,,,,
Fix,GT,37.4375443000,-122.2454657000,68.8612551256067,27.045174,0.1,313.45578,1609800130433,,,,
Fix,GT,37.4377133000,-122.2456852000,69.97192227030223,26.890232,0.1,314.2814,1609800131433,,,,
Fix,GT,37.4378825000,-122.2459003000,71.11192071402911,26.610836,0.1,314.6692,1609800132433,,,,
Fix,GT,37.4380507000,-122.2461133000,72.19692399253358,26.427347,0.1,314.58984,1609800133433,,,,
Fix,GT,37.4382175000,-122.2463259000,73.32058758817675,26.442871,0.1,314.2964,1609800134433,,,,
Fix,GT,37.4383842000,-122.2465406000,74.42891779293495,26.575665,0.1,314.13284,1609800135433,,,,
Fix,GT,37.4385523000,-122.2467566000,75.53658709738943,26.900719,0.1,314.33997,1609800136433,,,,
Fix,GT,37.4387233000,-122.2469750000,76.60625166841783,27.276966,0.1,314.42828,1609800137433,,,,
Fix,GT,37.4388967000,-122.2471970000,77.72858699206972,27.629604,0.1,314.266,1609800138433,,,,
Fix,GT,37.4390709000,-122.2474204000,78.83559002767561,27.698586,0.1,314.34073,1609800139433,,,,
Fix,GT,37.4392463000,-122.2476440000,79.94958932389045,27.833084,0.1,314.66156,1609800140433,,,,
Fix,GT,37.4394237000,-122.2478683000,81.06992336708754,28.101717,0.1,314.58926,1609800141433,,,,
Fix,GT,37.4396016000,-122.2480952000,82.18658725385376,28.153267,0.1,314.21683,1609800142433,,,,
Fix,GT,37.4397781000,-122.2483232000,83.30692043355702,28.094757,0.1,313.99265,1609800143433,,,,
Fix,GT,37.4399540000,-122.2485520000,84.42925421830296,28.189686,0.1,313.8756,1609800144433,,,,
Fix,GT,37.4401307000,-122.2487813000,85.59792436891576,28.213943,0.1,314.03683,1609800145433,,,,
Fix,GT,37.4403071000,-122.2490093000,86.75425372614518,27.998373,0.1,314.138,1609800146433,,,,
Fix,GT,37.4404821000,-122.2492353000,87.85992179430127,27.763521,0.1,314.0494,1609800147433,,,,
Fix,GT,37.4406551000,-122.2494596000,88.96992325637302,27.475231,0.1,313.89297,1609800148433,,,,
Fix,GT,37.4408257000,-122.2496828000,90.041260547604,27.288855,0.1,313.62836,1609800149433,,,,
Fix,GT,37.4409961000,-122.2499061000,91.12758932297038,27.422539,0.1,313.70068,1609800150433,,,,
Fix,GT,37.4411673000,-122.2501306000,92.2122527832978,27.568184,0.1,313.66342,1609800151433,,,,
Fix,GT,37.4413402000,-122.2503559000,93.30625582321272,27.792425,0.1,313.99396,1609800152433,,,,
Fix,GT,37.4415148000,-122.2505819000,94.52525159820857,27.826906,0.1,314.11127,1609800153433,,,,
Fix,GT,37.4416887000,-122.2508069000,95.78558820095509,27.57963,0.1,314.05173,1609800154433,,,,
Fix,GT,37.4418599000,-122.2510295000,97.02958398216333,27.185005,0.1,313.88776,1609800155433,,,,
Fix,GT,37.4420284000,-122.2512510000,98.27292005113486,27.101578,0.1,313.371,1609800156433,,,,
Fix,GT,37.4421946000,-122.2514758000,99.44358107750122,27.04021,0.099,312.30273,1609800157433,,,,
Fix,GT,37.4423542000,-122.2517020000,100.52558808426488,26.37527,0.1,310.5141,1609800158433,,,,
Fix,GT,37.4425031000,-122.2519291000,101.57259193988443,25.66177,0.1,308.45438,1609800159433,,,,
Fix,GT,37.4426421000,-122.2521558000,102.56858807333379,24.94591,0.1,306.78537,1609800160433,,,,
Fix,GT,37.4427720000,-122.2523811000,103.52459625789061,24.252357,0.1,305.10867,1609800161433,,,,
Fix,GT,37.4428941000,-122.2526038000,104.4565946327366,23.58534,0.1,304.1038,1609800162433,,,,
Fix,GT,37.4430098000,-122.2528226000,105.37959551428594,22.87476,0.1,303.1118,1609800163433,,,,
Fix,GT,37.4431182000,-122.2530379000,106.27626282753226,22.19194,0.1,301.49667,1609800164433,,,,
Fix,GT,37.4432189000,-122.2532503000,107.13792628774172,21.534065,0.1,300.1214,1609800165433,,,,
Fix,GT,37.4433122000,-122.2534595000,107.95459795655097,20.88583,0.1,298.54608,1609800166433,,,,
Fix,GT,37.4433985000,-122.2536653000,108.76092491467057,20.25482,0.099,297.1714,1609800167433,,,,
Fix,GT,37.4434783000,-122.2538666000,109.55026327622727,19.545567,0.1,295.86798,1609800168433,,,,
Fix,GT,37.4435518000,-122.2540634000,110.32259830699559,18.922607,0.1,294.52777,1609800169433,,,,
Fix,GT,37.4436202000,-122.2542578000,111.05593293285165,18.812939,0.1,293.347,1609800170433,,,,
Fix,GT,37.4436867000,-122.2544572000,111.80326499951639,19.487888,0.1,292.21246,1609800171433,,,,
Fix,GT,37.4437510000,-122.2546615000,112.5635981979849,19.333096,0.1,291.05048,1609800172433,,,,
Fix,GT,37.4438123000,-122.2548675000,113.32026844272036,19.611473,0.1,290.12698,1609800173433,,,,
Fix,GT,37.4438718000,-122.2550775000,114.09060130182525,19.912062,0.1,289.02896,1609800174433,,,,
Fix,GT,37.4439285000,-122.2552922000,114.89926237971622,20.074648,0.1,287.73813,1609800175433,,,,
Fix,GT,37.4439817000,-122.2555090000,115.71093251199272,19.962015,0.1,286.65726,1609800176433,,,,
Fix,GT,37.4440307000,-122.2557230000,116.47192407285843,19.490044,0.1,285.56357,1609800177433,,,,
Fix,GT,37.4440754000,-122.2559355000,117.23726217843296,19.424807,0.1,284.19052,1609800178433,,,,
Fix,GT,37.4441162000,-122.2561470000,117.99593462111466,18.982204,0.1,283.26083,1609800179433,,,,
Fix,GT,37.4441527000,-122.2563534000,118.70993662632054,18.484814,0.1,281.93054,1609800180433,,,,
Fix,GT,37.4441847000,-122.2565566000,119.37293477603816,18.192854,0.1,280.66238,1609800181433,,,,
Fix,GT,37.4442132000,-122.2567591000,119.99593304030532,18.248304,0.099,279.58752,1609800182433,,,,
Fix,GT,37.4442389000,-122.2569645000,120.58993689459317,18.608896,0.1,278.44144,1609800183433,,,,
Fix,GT,37.4442619000,-122.2571758000,121.18660053060921,19.134293,0.1,277.2694,1609800184433,,,,
Fix,GT,37.4442821000,-122.2573931000,121.77760141083263,19.515839,0.1,276.1752,1609800185433,,,,
Fix,GT,37.4442990000,-122.2576108000,122.34660604021815,19.125937,0.1,275.15488,1609800186433,,,,
Fix,GT,37.4443126000,-122.2578246000,122.88327464750523,18.950174,0.1,274.06204,1609800187433,,,,
Fix,GT,37.4443220000,-122.2580380000,123.36027090983907,18.804533,0.1,272.4927,1609800188433,,,,
Fix,GT,37.4443270000,-122.2582504000,123.81294281953501,18.802391,0.1,271.1036,1609800189433,,,,
Fix,GT,37.4443279000,-122.2584610000,124.23693764703785,18.436731,0.1,269.8253,1609800190433,,,,
Fix,GT,37.4443259000,-122.2586682000,124.63194158144233,18.233385,0.1,268.8927,1609800191433,,,,
Fix,GT,37.4443213000,-122.2588733000,124.9732805582023,18.134993,0.1,267.97305,1609800192433,,,,
Fix,GT,37.4443136000,-122.2590801000,125.27760832726108,18.621868,0.1,266.81406,1609800193433,,,,
Fix,GT,37.4443023000,-122.2592927000,125.5316098656258,18.947144,0.1,265.71384,1609800194433,,,,
Fix,GT,37.4442881000,-122.2595061000,125.74494301588379,18.866112,0.1,264.89676,1609800195433,,,,
Fix,GT,37.4442721000,-122.2597178000,125.9316072970737,18.839388,0.1,264.31772,1609800196433,,,,
Fix,GT,37.4442551000,-122.2599306000,126.09261489492155,19.023651,0.1,264.29333,1609800197433,,,,
Fix,GT,37.4442379000,-122.2601455000,126.21794853367965,19.22356,0.1,264.22467,1609800198433,,,,
Fix,GT,37.4442208000,-122.2603614000,126.32194554190028,19.086245,0.1,264.25192,1609800199433,,,,
Fix,GT,37.4442040000,-122.2605754000,126.38494908354915,18.987022,0.1,264.40692,1609800200433,,,,
Fix,GT,37.4441875000,-122.2607888000,126.46961526188079,19.000925,0.1,264.40247,1609800201433,,,,
Fix,GT,37.4441709000,-122.2610032000,126.5679470142386,19.111937,0.1,264.39505,1609800202433,,,,
Fix,GT,37.4441537000,-122.2612187000,126.70694244984861,19.249313,0.1,264.10345,1609800203433,,,,
Fix,GT,37.4441360000,-122.2614374000,126.84794884908956,19.766623,0.1,264.1258,1609800204433,,,,
Fix,GT,37.4441177000,-122.2616631000,127.00094116471269,20.30112,0.099,264.14047,1609800205433,,,,
Fix,GT,37.4440989000,-122.2618941000,127.1069484855202,20.793306,0.1,264.0651,1609800206433,,,,
Fix,GT,37.4440792000,-122.2621297000,127.24694714988163,21.131035,0.1,263.93243,1609800207433,,,,
Fix,GT,37.4440591000,-122.2623690000,127.37127754001062,21.417603,0.1,263.8772,1609800208433,,,,
Fix,GT,37.4440393000,-122.2626108000,127.4856171845613,21.597498,0.1,264.35654,1609800209433,,,,
Fix,GT,37.4440215000,-122.2628531000,127.53894842396767,21.405737,0.1,264.89764,1609800210433,,,,
Fix,GT,37.4440048000,-122.2630920000,127.62028189019475,21.024162,0.1,264.96024,1609800211433,,,,
Fix,GT,37.4439879000,-122.2633269000,127.73328429394269,20.832378,0.1,264.64456,1609800212433,,,,
Fix,GT,37.4439699000,-122.2635609000,127.81394505171193,20.68023,0.099,264.26392,1609800213433,,,,
Fix,GT,37.4439516000,-122.2637916000,127.89094725200175,20.335802,0.1,264.22556,1609800214433,,,,
Fix,GT,37.4439348000,-122.2640183000,127.93795013427734,20.000385,0.1,265.10422,1609800215433,,,,
Fix,GT,37.4439223000,-122.2642440000,127.9439513743107,20.132128,0.1,266.6941,1609800216433,,,,
Fix,GT,37.4439152000,-122.2644731000,127.91195060221435,20.448792,0.1,268.34042,1609800217433,,,,
Fix,GT,37.4439119000,-122.2647059000,127.88261764163508,20.796173,0.1,269.3106,1609800218433,,,,
Fix,GT,37.4439114000,-122.2649431000,127.82728442632606,21.190449,0.1,270.12064,1609800219433,,,,
Fix,GT,37.4439143000,-122.2651848000,127.76595268673736,21.5985,0.1,271.38586,1609800220433,,,,
Fix,GT,37.4439216000,-122.2654309000,127.64995100339729,21.96208,0.1,272.64517,1609800221433,,,,
Fix,GT,37.4439338000,-122.2656799000,127.51861956695666,22.183956,0.1,274.30737,1609800222433,,,,
Fix,GT,37.4439519000,-122.2659302000,127.33862142018916,22.32434,0.1,275.6186,1609800223433,,,,
Fix,GT,37.4439741000,-122.2661824000,127.12162670498628,22.594088,0.1,276.8491,1609800224433,,,,
Fix,GT,37.4440013000,-122.2664374000,126.8606234818426,22.953741,0.1,278.08765,1609800225433,,,,
Fix,GT,37.4440334000,-122.2666957000,126.57295060308479,23.329388,0.1,279.2889,1609800226433,,,,
Fix,GT,37.4440695000,-122.2669558000,126.25762410697644,23.329159,0.1,280.35333,1609800227433,,,,
Fix,GT,37.4441096000,-122.2672136000,125.94462685737199,23.15038,0.1,281.4305,1609800228433,,,,
Fix,GT,37.4441534000,-122.2674681000,125.60829165085306,22.9549,0.1,282.80582,1609800229433,,,,
Fix,GT,37.4442018000,-122.2677192000,125.29229348831404,22.770191,0.1,284.1311,1609800230433,,,,
Fix,GT,37.4442542000,-122.2679669000,124.98995717801768,22.582878,0.1,285.50998,1609800231433,,,,
Fix,GT,37.4443118000,-122.2682104000,124.64929389462759,22.394987,0.1,287.23315,1609800232433,,,,
Fix,GT,37.4443741000,-122.2684500000,124.3322943599735,22.220371,0.1,288.58893,1609800233433,,,,
Fix,GT,37.4444402000,-122.2686860000,124.0082906087182,22.0469,0.1,289.85654,1609800234433,,,,
Fix,GT,37.4445103000,-122.2689180000,123.68695854729594,21.872711,0.1,291.37827,1609800235433,,,,
Fix,GT,37.4445843000,-122.2691460000,123.36195650507261,21.71266,0.1,292.58743,1609800236433,,,,
Fix,GT,37.4446612000,-122.2693706000,122.97395967514467,21.560791,0.1,293.6605,1609800237433,,,,
Fix,GT,37.4447405000,-122.2695920000,122.64328620878223,21.393286,0.1,294.47855,1609800238433,,,,
Fix,GT,37.4448220000,-122.2698104000,122.37362389991358,21.304934,0.1,295.50116,1609800239433,,,,
Fix,GT,37.4449069000,-122.2700256000,122.09928819447714,21.169113,0.1,296.74454,1609800240433,,,,
Fix,GT,37.4449946000,-122.2702368000,121.83629062032855,20.992006,0.1,297.99805,1609800241433,,,,
Fix,GT,37.4450853000,-122.2704438000,121.55162386731718,20.806913,0.1,299.29388,1609800242433,,,,
Fix,GT,37.4451787000,-122.2706464000,121.30895476214937,20.634987,0.1,300.49838,1609800243433,,,,
Fix,GT,37.4452751000,-122.2708470000,121.12161852439294,20.94032,0.1,301.3889,1609800244433,,,,
Fix,GT,37.4453766000,-122.2710512000,120.98662472321075,21.646788,0.1,302.267,1609800245433,,,,
Fix,GT,37.4454850000,-122.2712594000,120.88994888660568,22.347607,0.1,303.83618,1609800246433,,,,
Fix,GT,37.4456014000,-122.2714700000,120.79528488982623,23.041317,0.1,305.28732,1609800247433,,,,
Fix,GT,37.4457258000,-122.2716832000,120.79094696044922,23.715574,0.1,306.79523,1609800248433,,,,
Fix,GT,37.4458575000,-122.2718976000,120.83895259058704,24.048218,0.1,308.1694,1609800249433,,,,
Fix,GT,37.4459937000,-122.2721092000,120.99528486861163,24.113235,0.1,309.48074,1609800250433,,,,
Fix,GT,37.4461340000,-122.2723178000,121.19527502485084,24.171276,0.1,310.55322,1609800251433,,,,
Fix,GT,37.4462772000,-122.2725238000,121.43027492531178,24.208712,0.1,311.34802,1609800252433,,,,
Fix,GT,37.4464217000,-122.2727288000,121.74460866040226,24.217787,0.1,311.36124,1609800253433,,,,
Fix,GT,37.4465656000,-122.2729352000,122.08294410399503,24.317707,0.1,311.0293,1609800254433,,,,
Fix,GT,37.4467098000,-122.2731428000,122.42027500908443,24.409964,0.1,310.97476,1609800255433,,,,
Fix,GT,37.4468543000,-122.2733510000,122.83660942980987,24.368465,0.1,310.9163,1609800256433,,,,
Fix,GT,37.4469971000,-122.2735570000,123.29893525577927,23.990902,0.099,311.05554,1609800257433,,,,
Fix,GT,37.4471389000,-122.2737609000,123.77393555944218,23.913673,0.1,311.08182,1609800258433,,,,
Fix,GT,37.4472806000,-122.2739644000,124.31460459322398,23.880424,0.1,311.1364,1609800259433,,,,
Fix,GT,37.4474222000,-122.2741661000,124.91793434240026,23.63805,0.1,311.3395,1609800260433,,,,
Fix,GT,37.4475620000,-122.2743655000,125.54793274735812,23.3621,0.1,311.20166,1609800261433,,,,
Fix,GT,37.4477002000,-122.2745636000,126.20794017600292,23.24636,0.1,311.0729,1609800262433,,,,
Fix,GT,37.4478378000,-122.2747613000,126.85160069726408,23.210358,0.1,311.2865,1609800263433,,,,
Fix,GT,37.4479760000,-122.2749581000,127.51626800287158,23.225166,0.1,311.29962,1609800264433,,,,
Fix,GT,37.4481150000,-122.2751564000,128.19727157420448,23.494228,0.1,311.2451,1609800265433,,,,
Fix,GT,37.4482550000,-122.2753559000,128.892262234599,23.564888,0.1,311.32645,1609800266433,,,,
Fix,GT,37.4483958000,-122.2755557000,129.58060525622477,23.552597,0.1,311.52444,1609800267433,,,,
Fix,GT,37.4485357000,-122.2757524000,130.23126831886657,23.057386,0.1,311.7769,1609800268433,,,,
Fix,GT,37.4486729000,-122.2759436000,130.8779314350786,22.456312,0.1,312.0592,1609800269433,,,,
Fix,GT,37.4488069000,-122.2761291000,131.50359865650034,21.88203,0.1,312.14407,1609800270433,,,,
Fix,GT,37.4489373000,-122.2763107000,132.11927276036204,21.411978,0.1,311.5028,1609800271433,,,,
Fix,GT,37.4490636000,-122.2764940000,132.72494126058882,21.5432,0.1,310.37354,1609800272433,,,,
Fix,GT,37.4491900000,-122.2766815000,133.32493789880937,21.845367,0.1,310.00934,1609800273433,,,,
Fix,GT,37.4493168000,-122.2768705000,133.91327080106203,21.820816,0.1,309.98883,1609800274433,,,,
Fix,GT,37.4494427000,-122.2770582000,134.46193639991543,21.577023,0.1,310.09695,1609800275433,,,,
Fix,GT,37.4495676000,-122.2772435000,134.97460685126362,21.41111,0.1,310.17123,1609800276433,,,,
Fix,GT,37.4496918000,-122.2774281000,135.4219462613023,21.342749,0.1,309.77875,1609800277433,,,,
Fix,GT,37.4498143000,-122.2776154000,135.7809380578301,21.533218,0.1,308.99127,1609800278433,,,,
Fix,GT,37.4499371000,-122.2778054000,136.19294099441822,21.844414,0.1,309.0406,1609800279433,,,,
Fix,GT,37.4500625000,-122.2779993000,136.56693874997427,22.365273,0.1,308.95947,1609800280433,,,,
Fix,GT,37.4501915000,-122.2781993000,136.91427840427423,22.988249,0.1,308.93948,1609800281433,,,,
Fix,GT,37.4503227000,-122.2784023000,137.31861413459228,23.29158,0.1,309.03085,1609800282433,,,,
Fix,GT,37.4504568000,-122.2786070000,137.6776062755307,23.613935,0.1,309.714,1609800283433,,,,
Fix,GT,37.4505943000,-122.2788137000,137.92928058570578,23.969917,0.1,309.58786,1609800284433,,,,
Fix,GT,37.4507323000,-122.2790230000,138.14361826047298,24.10653,0.1,309.49228,1609800285433,,,,
Fix,GT,37.4508709000,-122.2792353000,138.2972798563119,24.473167,0.1,308.97815,1609800286433,,,,
Fix,GT,37.4510091000,-122.2794534000,138.39828329098054,24.884571,0.1,307.8727,1609800287433,,,,
Fix,GT,37.4511480000,-122.2796807000,138.4326075131471,25.893028,0.1,307.18707,1609800288433,,,,
Fix,GT,37.4512930000,-122.2799200000,138.4822845805911,27.399284,0.1,307.32632,1609800289433,,,,
Fix,GT,37.4514477000,-122.2801697000,138.53027759984252,28.299654,0.1,308.45914,1609800290433,,,,
Fix,GT,37.4516086000,-122.2804192000,138.4979550543244,28.392794,0.1,309.25754,1609800291433,,,,
Fix,GT,37.4517709000,-122.2806663000,138.3606156204196,28.278511,0.099,309.5041,1609800292433,,,,
Fix,GT,37.4519336000,-122.2809130000,138.22895141756362,28.45068,0.1,309.5563,1609800293433,,,,
Fix,GT,37.4520985000,-122.2811623000,138.00995329235002,28.970642,0.1,309.67038,1609800294433,,,,
Fix,GT,37.4522672000,-122.2814157000,137.70762124091016,29.358044,0.1,309.9715,1609800295433,,,,
Fix,GT,37.4524391000,-122.2816711000,137.34662208896316,29.815197,0.1,310.4499,1609800296433,,,,
Fix,GT,37.4526177000,-122.2819279000,136.91896415159545,30.510746,0.1,311.435,1609800297433,,,,
Fix,GT,37.4528032000,-122.2821901000,136.41828982857987,31.581268,0.1,311.43362,1609800298433,,,,
Fix,GT,37.4529913000,-122.2824604000,135.84996567895087,31.81697,0.1,310.64124,1609800299433,,,,
Fix,GT,37.4531765000,-122.2827331000,135.20162505769576,31.597998,0.1,310.175,1609800300433,,,,
Fix,GT,37.4533590000,-122.2830057000,134.51262530996792,31.374378,0.1,309.71805,1609800301433,,,,
Fix,GT,37.4535384000,-122.2832779000,133.82963533280372,31.130056,0.1,309.3394,1609800302433,,,,
Fix,GT,37.4537154000,-122.2835492000,133.14230311429856,30.899715,0.1,309.18433,1609800303433,,,,
Fix,GT,37.4538911000,-122.2838183000,132.4816336021322,30.69131,0.1,309.3546,1609800304433,,,,
Fix,GT,37.4540666000,-122.2840851000,131.82763240683926,30.49647,0.1,309.52963,1609800305433,,,,
Fix,GT,37.4542408000,-122.2843500000,131.12530039042758,30.271994,0.1,309.30206,1609800306433,,,,
Fix,GT,37.4544130000,-122.2846138000,130.48362669393646,30.042498,0.1,309.21744,1609800307433,,,,
Fix,GT,37.4545838000,-122.2848753000,129.81796193442187,29.80967,0.1,309.31592,1609800308433,,,,
Fix,GT,37.4547539000,-122.2851345000,129.17329804878682,29.59613,0.1,309.45834,1609800309433,,,,
Fix,GT,37.4549230000,-122.2853915000,128.52696727700823,29.363575,0.1,309.3487,1609800310433,,,,
Fix,GT,37.4550898000,-122.2856470000,127.87796438859095,29.074652,0.1,309.30533,1609800311433,,,,
Fix,GT,37.4552554000,-122.2858997000,127.19529280166148,28.798613,0.1,309.3259,1609800312433,,,,
Fix,GT,37.4554192000,-122.2861502000,126.55996666097576,28.546835,0.1,309.19894,1609800313433,,,,
Fix,GT,37.4555818000,-122.2863986000,125.88162616198565,28.33593,0.099,309.38535,1609800314433,,,,
Fix,GT,37.4557440000,-122.2866448000,125.14163153797062,28.21939,0.1,309.54355,1609800315433,,,,
Fix,GT,37.4559069000,-122.2868896000,124.42630460899409,28.23787,0.1,309.93405,1609800316433,,,,
Fix,GT,37.4560727000,-122.2871337000,123.78095778461557,28.57516,0.1,311.03687,1609800317433,,,,
Fix,GT,37.4562466000,-122.2873752000,123.31796176102603,29.014912,0.1,312.99146,1609800318433,,,,
Fix,GT,37.4564300000,-122.2876123000,122.94928913062404,29.460503,0.1,314.98535,1609800319433,,,,
Fix,GT,37.4566229000,-122.2878455000,122.7072887293757,30.094948,0.1,317.08258,1609800320433,,,,
Fix,GT,37.4568276000,-122.2880748000,122.57694956454725,30.80783,0.1,319.20645,1609800321433,,,,
Fix,GT,37.4570418000,-122.2882984000,122.56794789800006,30.976479,0.1,321.11853,1609800322433,,,,
Fix,GT,37.4572627000,-122.2885142000,122.71027708699057,31.20037,0.1,322.7811,1609800323433,,,,
Fix,GT,37.4574901000,-122.2887236000,123.0182779012896,31.439682,0.1,324.4679,1609800324433,,,,
Fix,GT,37.4577245000,-122.2889255000,123.4856034400218,31.682392,0.1,326.6001,1609800325433,,,,
Fix,GT,37.4579661000,-122.2891174000,124.05493594502695,31.748514,0.1,328.83432,1609800326433,,,,
Fix,GT,37.4582144000,-122.2892956000,124.68860367100751,31.782238,0.1,331.4502,1609800327433,,,,
Fix,GT,37.4584685000,-122.2894616000,125.29626366971729,31.798954,0.1,333.36523,1609800328433,,,,
Fix,GT,37.4587264000,-122.2896171000,125.96826005500611,31.734993,0.1,335.11,1609800329433,,,,
Fix,GT,37.4589874000,-122.2897629000,126.64427091813036,31.697292,0.1,336.8279,1609800330433,,,,
Fix,GT,37.4592518000,-122.2898975000,127.29893732979895,31.652634,0.1,338.94873,1609800331433,,,,
Fix,GT,37.4595197000,-122.2900191000,127.86260241148375,31.575966,0.1,341.20938,1609800332433,,,,
Fix,GT,37.4597895000,-122.2901284000,128.5179405001195,31.373142,0.1,342.9467,1609800333433,,,,
Fix,GT,37.4600602000,-122.2902259000,129.16460304414886,31.195663,0.1,344.82666,1609800334433,,,,
Fix,GT,37.4603324000,-122.2903121000,129.84560281478934,31.104847,0.1,346.8971,1609800335433,,,,
Fix,GT,37.4606064000,-122.2903833000,130.52193892811556,31.03347,0.1,349.6595,1609800336433,,,,
Fix,GT,37.4608826000,-122.2904407000,131.133602981663,31.159721,0.1,351.84647,1609800337433,,,,
Fix,GT,37.4611631000,-122.2904815000,131.73627335591073,31.571318,0.1,354.9629,1609800338433,,,,
Fix,GT,37.4614479000,-122.2905055000,132.3649412796367,31.769032,0.1,357.04364,1609800339433,,,,
Fix,GT,37.4617346000,-122.2905204000,133.1182577327054,31.944576,0.1,358.01996,1609800340433,,,,
Fix,GT,37.4620235000,-122.2905313000,133.96526761268797,32.232117,0.1,358.4981,1609800341433,,,,
Fix,GT,37.4623148000,-122.2905392000,134.68293690066457,32.410183,0.1,358.90775,1609800342433,,,,
Fix,GT,37.4626072000,-122.2905469000,135.33359932675376,32.487457,0.1,358.5771,1609800343433,,,,
Fix,GT,37.4628999000,-122.2905554000,135.98993153799802,32.532413,0.1,358.56085,1609800344433,,,,
Fix,GT,37.4631933000,-122.2905648000,136.6996055157215,32.59201,0.1,358.45416,1609800345433,,,,
Fix,GT,37.4634860000,-122.2905746000,137.4872638892225,32.380924,0.1,358.47546,1609800346433,,,,
Fix,GT,37.4637760000,-122.2905854000,138.4492695541071,32.012012,0.1,358.0484,1609800347433,,,,
Fix,GT,37.4640622000,-122.2906008000,139.27493930299443,31.576893,0.1,356.97104,1609800348433,,,,
Fix,GT,37.4643446000,-122.2906236000,139.74126916135538,31.238274,0.099,355.60434,1609800349433,,,,
Fix,GT,37.4646235000,-122.2906542000,140.15994395840198,30.905582,0.1,354.31137,1609800350433,,,,
Fix,GT,37.4648983000,-122.2906923000,140.5529451602706,30.405216,0.1,352.98904,1609800351433,,,,
Fix,GT,37.4651673000,-122.2907379000,140.86928065073153,29.873909,0.1,351.58823,1609800352433,,,,
Fix,GT,37.4654309000,-122.2907905000,141.17060525519355,29.364857,0.1,350.47415,1609800353433,,,,
Fix,GT,37.4656896000,-122.2908461000,141.4185981952901,28.884068,0.1,350.19754,1609800354433,,,,
Fix,GT,37.4659440000,-122.2909015000,141.71528077209769,28.400904,0.1,350.33597,1609800355433,,,,
Fix,GT,37.4661941000,-122.2909550000,142.06393821164238,27.917542,0.1,350.33344,1609800356433,,,,
Fix,GT,37.4664393000,-122.2910082000,142.40860235998298,27.193016,0.1,349.9028,1609800357433,,,,
Fix,GT,37.4666750000,-122.2910640000,142.75760862271,26.064497,0.1,348.68872,1609800358433,,,,
Fix,GT,37.4669008000,-122.2911256000,142.8882906719282,25.22752,0.1,347.006,1609800359433,,,,
Fix,GT,37.4671166000,-122.2911914000,142.70429591081393,24.087172,0.1,345.78925,1609800360433,,,,
Fix,GT,37.4673200000,-122.2912588000,142.34529122425738,22.525108,0.1,344.78613,1609800361433,,,,
Fix,GT,37.4675103000,-122.2913258000,141.71663055560248,21.483742,0.1,343.9131,1609800362433,,,,
Fix,GT,37.4676920000,-122.2913949000,141.18963375620115,20.690407,0.1,342.35376,1609800363433,,,,
Fix,GT,37.4678654000,-122.2914692000,140.3913005005379,19.98104,0.1,340.21204,1609800364433,,,,
Fix,GT,37.4680312000,-122.2915457000,139.46496728719058,19.086195,0.099,339.5976,1609800365433,,,,
Fix,GT,37.4681843000,-122.2916154000,138.5179696351761,16.948767,0.1,340.42993,1609800366433,,,,
Fix,GT,37.4683185000,-122.2916729000,137.62129931012805,14.55878,0.1,341.67102,1609800367433,,,,
Fix,GT,37.4684339000,-122.2917186000,136.9152943436752,12.33647,0.1,342.8989,1609800368433,,,,
Fix,GT,37.4685298000,-122.2917547000,136.48495754732176,9.804046,0.1,343.19614,1609800369433,,,,
Fix,GT,37.4686036000,-122.2917855000,136.2476237418732,7.583014,0.1,340.2421,1609800370433,,,,
Fix,GT,37.4686583000,-122.2918146000,136.15094697463974,5.422193,0.1,336.0022,1609800371433,,,,
Fix,GT,37.4686902000,-122.2918355000,136.0936186240915,2.5355926,0.1,332.4727,1609800372433,,,,
Fix,GT,37.4687018000,-122.2918439000,136.07360964337522,0.6138417,0.1,331.02664,1609800373433,,,,
Fix,GT,37.4687030000,-122.2918448000,136.06061321026573,0.1277717,0.1,330.87036,1609800374433,,,,
Fix,GT,37.4687078000,-122.2918484000,136.04894614073783,1.3279064,0.1,330.34988,1609800375433,,,,
Fix,GT,37.4687249000,-122.2918621000,136.0432834966782,3.2955868,0.1,328.35797,1609800376433,,,,
Fix,GT,37.4687587000,-122.2918957000,136.0859483153945,5.967083,0.1,320.0058,1609800377433,,,,
Fix,GT,37.4687934000,-122.2919550000,136.30927354073128,6.987995,0.099,301.63138,1609800378433,,,,
Fix,GT,37.4688061000,-122.2920380000,136.4926146907278,7.6995683,0.1,272.71774,1609800379433,,,,
Fix,GT,37.4687832000,-122.2921268000,136.47328571165644,9.037002,0.1,244.85004,1609800380433,,,,
Fix,GT,37.4687270000,-122.2922157000,136.506607001671,11.010807,0.1,227.39734,1609800381433,,,,
Fix,GT,37.4686492000,-122.2923100000,136.52128071222887,12.806051,0.1,223.51085,1609800382433,,,,
Fix,GT,37.4685646000,-122.2924112000,136.4639521535496,13.014946,0.099,223.49425,1609800383433,,,,
Fix,GT,37.4684786000,-122.2925160000,136.28128607095277,13.769544,0.1,224.80937,1609800384433,,,,
Fix,GT,37.4683915000,-122.2926316000,135.9719639431505,14.346754,0.1,227.90263,1609800385433,,,,
Fix,GT,37.4683056000,-122.2927554000,135.52895955043596,14.530157,0.1,228.93703,1609800386433,,,,
Fix,GT,37.4682192000,-122.2928751000,134.99062946729464,13.901803,0.1,226.97731,1609800387433,,,,
Fix,GT,37.4681348000,-122.2929833000,134.36062729725336,12.821529,0.1,224.90662,1609800388433,,,,
Fix,GT,37.4680574000,-122.2930817000,133.68130474821464,11.622717,0.1,226.3602,1609800389433,,,,
Fix,GT,37.4679962000,-122.2931795000,132.96397225382998,10.573503,0.1,236.17838,1609800390433,,,,
Fix,GT,37.4679631000,-122.2932862000,132.13097317481333,10.197537,0.1,256.3247,1609800391433,,,,
Fix,GT,37.4679718000,-122.2934007000,131.29062280138305,10.421774,0.1,285.76715,1609800392433,,,,
Fix,GT,37.4680231000,-122.2935011000,131.100946973992,11.029472,0.1,309.0494,1609800393433,,,,
Fix,GT,37.4680981000,-122.2935964000,131.1412809153553,12.8917885,0.1,315.99948,1609800394433,,,,
Fix,GT,37.4681892000,-122.2937033000,131.30061225671034,14.264327,0.1,317.2191,1609800395433,,,,
Fix,GT,37.4682865000,-122.2938137000,131.4842737611607,14.962661,0.1,317.5118,1609800396433,,,,
Fix,GT,37.4683885000,-122.2939302000,131.97160635217688,15.625847,0.1,317.4949,1609800397433,,,,
Fix,GT,37.4684951000,-122.2940502000,132.62293065509039,16.03278,0.1,318.39035,1609800398433,,,,
Fix,GT,37.4686053000,-122.2941624000,133.37193885025226,15.434975,0.1,323.36716,1609800399433,,,,
Fix,GT,37.4687222000,-122.2942468000,134.16026895800178,14.625542,0.1,335.8417,1609800400433,,,,
Fix,GT,37.4688457000,-122.2942871000,135.06559504074357,13.9817295,0.1,352.22272,1609800401433,,,,
Fix,GT,37.4689704000,-122.2942788000,136.0539305438715,14.005718,0.1,10.132705,1609800402433,,,,
Fix,GT,37.4690874000,-122.2942223000,136.95626330269806,14.088834,0.1,28.13784,1609800403433,,,,
Fix,GT,37.4691854000,-122.2941217000,137.82092601606428,14.225319,0.1,46.569042,1609800404433,,,,
Fix,GT,37.4692575000,-122.2939847000,138.69192288013437,15.015305,0.1,63.241985,1609800405433,,,,
Fix,GT,37.4692948000,-122.2938227000,139.60025640212098,15.094351,0.099,81.40655,1609800406433,,,,
Fix,GT,37.4692877000,-122.2936546000,140.53526063550908,15.044823,0.1,101.348305,1609800407433,,,,
Fix,GT,37.4692347000,-122.2934961000,141.34926172801534,15.64049,0.1,120.64866,1609800408433,,,,
Fix,GT,37.4691424000,-122.2933561000,142.07026423383832,16.735653,0.1,134.26021,1609800409433,,,,
Fix,GT,37.4690283000,-122.2932216000,142.67860143823782,17.996159,0.1,137.77289,1609800410433,,,,
Fix,GT,37.4689007000,-122.2930817000,143.1919405334138,19.834204,0.1,139.82104,1609800411433,,,,
Fix,GT,37.4687544000,-122.2929343000,143.59195001818625,21.781275,0.1,142.47916,1609800412433,,,,
Fix,GT,37.4685905000,-122.2927828000,143.53095425223,23.405176,0.1,144.65901,1609800413433,,,,
Fix,GT,37.4684103000,-122.2926313000,143.36628565617866,24.619305,0.1,147.65373,1609800414433,,,,
Fix,GT,37.4682152000,-122.2924848000,143.14695299746836,25.951336,0.1,150.19133,1609800415433,,,,
Fix,GT,37.4680043000,-122.2923418000,142.91961065120222,27.124882,0.1,152.88643,1609800416433,,,,
Fix,GT,37.4677818000,-122.2922067000,142.68227565681673,27.682205,0.1,155.25307,1609800417433,,,,
Fix,GT,37.4675514000,-122.2920779000,142.45229088921315,28.3214,0.1,156.52153,1609800418433,,,,
Fix,GT,37.4673120000,-122.2919508000,142.12794996289676,29.540117,0.1,157.6582,1609800419433,,,,
Fix,GT,37.4670592000,-122.2918254000,141.86395695156534,30.703897,0.1,159.11354,1609800420433,,,,
Fix,GT,37.4667962000,-122.2917061000,141.6012844828242,31.41138,0.1,161.22906,1609800421433,,,,
Fix,GT,37.4665250000,-122.2915961000,141.2849544741057,31.806892,0.1,162.8438,1609800422433,,,,
Fix,GT,37.4662492000,-122.2914952000,140.94428715810682,31.959484,0.1,164.64085,1609800423433,,,,
Fix,GT,37.4659704000,-122.2914044000,140.61695396790583,31.994484,0.1,166.17543,1609800424433,,,,
Fix,GT,37.4656896000,-122.2913228000,140.31295728970235,31.981161,0.1,167.63759,1609800425433,,,,
Fix,GT,37.4654073000,-122.2912513000,140.0419630224169,31.899645,0.1,169.40735,1609800426433,,,,
Fix,GT,37.4651252000,-122.2911915000,139.6442979193671,31.682327,0.1,171.42467,1609800427433,,,,
Fix,GT,37.4648421000,-122.2911432000,139.32228772689723,31.748468,0.1,173.04933,1609800428433,,,,
Fix,GT,37.4645572000,-122.2911052000,138.92329638071215,31.885174,0.1,174.85765,1609800429433,,,,
Fix,GT,37.4642702000,-122.2910782000,138.48229410497697,32.02347,0.1,176.55072,1609800430433,,,,
Fix,GT,37.4639814000,-122.2910607000,138.04695510152078,32.147297,0.1,177.70924,1609800431433,,,,
Fix,GT,37.4636916000,-122.2910476000,137.66095724585875,32.208546,0.1,178.05624,1609800432433,,,,
Fix,GT,37.4634013000,-122.2910357000,137.16262058680013,32.280315,0.1,178.21222,1609800433433,,,,
Fix,GT,37.4631102000,-122.2910246000,136.56262425466957,32.32618,0.1,178.22256,1609800434433,,,,
Fix,GT,37.4628204000,-122.2910131000,135.96562576547785,32.02105,0.1,178.11092,1609800435433,,,,
Fix,GT,37.4625336000,-122.2910015000,135.42094806250907,31.674145,0.1,178.21396,1609800436433,,,,
Fix,GT,37.4622501000,-122.2909904000,135.07762263565382,31.287334,0.1,178.3585,1609800437433,,,,
Fix,GT,37.4619700000,-122.2909803000,134.80795310088615,30.924658,0.1,178.33176,1609800438433,,,,
Fix,GT,37.4616930000,-122.2909664000,134.49895668858517,30.59739,0.1,176.9966,1609800439433,,,,
Fix,GT,37.4614192000,-122.2909419000,134.0022950117891,30.336288,0.1,174.75856,1609800440433,,,,
Fix,GT,37.4611484000,-122.2909057000,133.39329190743229,30.104359,0.1,173.3898,1609800441433,,,,
Fix,GT,37.4608801000,-122.2908622000,132.79362870576097,29.950102,0.1,171.89546,1609800442433,,,,
Fix,GT,37.4606142000,-122.2908087000,132.19761860280232,29.821712,0.1,169.96207,1609800443433,,,,
Fix,GT,37.4603510000,-122.2907441000,131.5889566964288,29.688698,0.1,167.8064,1609800444433,,,,
Fix,GT,37.4600910000,-122.2906679000,131.05695902446723,29.574862,0.1,165.90434,1609800445433,,,,
Fix,GT,37.4598340000,-122.2905811000,130.4189732111672,29.520973,0.1,164.19629,1609800446433,,,,
Fix,GT,37.4595785000,-122.2904845000,129.82263122750555,29.727499,0.1,162.33414,1609800447433,,,,
Fix,GT,37.4593234000,-122.2903774000,129.2306329614412,29.995857,0.1,160.76149,1609800448433,,,,
Fix,GT,37.4590685000,-122.2902603000,128.69496602879053,30.271282,0.1,159.07526,1609800449433,,,,
Fix,GT,37.4588136000,-122.2901312000,128.10529678853845,30.729872,0.1,156.96165,1609800450433,,,,
Fix,GT,37.4585590000,-122.2899881000,127.4553021235331,31.222466,0.1,154.88652,1609800451433,,,,
Fix,GT,37.4583043000,-122.2898310000,126.78362671511331,31.739855,0.1,152.7802,1609800452433,,,,
Fix,GT,37.4580509000,-122.2896596000,126.14763517005304,32.20157,0.1,150.68457,1609800453433,,,,
Fix,GT,37.4577987000,-122.2894762000,125.5406342291717,32.32909,0.1,149.17708,1609800454433,,,,
Fix,GT,37.4575518000,-122.2892851000,125.0116242717204,32.099625,0.1,147.32492,1609800455433,,,,
Fix,GT,37.4573122000,-122.2890834000,124.56028563895325,31.915619,0.1,145.09622,1609800456433,,,,
Fix,GT,37.4570804000,-122.2888726000,124.3032894824396,31.636063,0.1,143.02278,1609800457433,,,,
Fix,GT,37.4568559000,-122.2886533000,124.0976212960154,31.589203,0.1,141.17538,1609800458433,,,,
Fix,GT,37.4566368000,-122.2884242000,124.01394971992659,31.736618,0.099,139.3238,1609800459433,,,,
Fix,GT,37.4564222000,-122.2881853000,124.09060722735762,31.944513,0.099,137.4623,1609800460433,,,,
Fix,GT,37.4562135000,-122.2879359000,124.34027692734617,32.0027,0.1,135.35,1609800461433,,,,
Fix,GT,37.4560122000,-122.2876769000,124.68494028875966,31.981506,0.1,133.2461,1609800462433,,,,
Fix,GT,37.4558189000,-122.2874091000,125.13527778512889,31.952194,0.1,131.15088,1609800463433,,,,
Fix,GT,37.4556323000,-122.2871341000,125.57128034259404,31.967487,0.1,129.81194,1609800464433,,,,
Fix,GT,37.4554489000,-122.2868549000,125.83160779656419,32.020866,0.1,129.2441,1609800465433,,,,
Fix,GT,37.4552662000,-122.2865754000,126.21461180822666,31.949457,0.1,129.47952,1609800466433,,,,
Fix,GT,37.4550826000,-122.2862979000,126.79760210544919,31.880077,0.1,129.749,1609800467433,,,,
Fix,GT,37.4548994000,-122.2860204000,127.5119322445039,31.899614,0.1,129.54314,1609800468433,,,,
Fix,GT,37.4547158000,-122.2857423000,128.2202715175663,31.991169,0.1,129.6927,1609800469433,,,,
Fix,GT,37.4545315000,-122.2854639000,128.9052702780873,32.07396,0.1,129.45966,1609800470433,,,,
Fix,GT,37.4543478000,-122.2851834000,129.61793728254952,32.15683,0.1,129.25214,1609800471433,,,,
Fix,GT,37.4541640000,-122.2849018000,130.34727401714736,32.277397,0.1,129.32222,1609800472433,,,,
Fix,GT,37.4539790000,-122.2846199000,131.02293609990193,32.250298,0.1,129.56633,1609800473433,,,,
Fix,GT,37.4537938000,-122.2843405000,131.71494018201383,32.130993,0.1,129.78984,1609800474433,,,,
Fix,GT,37.4536082000,-122.2840603000,132.4309339985848,32.322742,0.1,129.55353,1609800475433,,,,
Fix,GT,37.4534224000,-122.2837775000,133.17159463369262,32.539257,0.1,129.3421,1609800476433,,,,
Fix,GT,37.4532364000,-122.2834922000,133.89360282332927,32.61219,0.1,129.18732,1609800477433,,,,
Fix,GT,37.4530506000,-122.2832067000,134.55393289225003,32.67203,0.1,129.19618,1609800478433,,,,
Fix,GT,37.4528632000,-122.2829200000,135.1632739915949,32.94787,0.1,129.43875,1609800479433,,,,
Fix,GT,37.4526737000,-122.2826327000,135.71660445424004,33.010246,0.1,129.72514,1609800480433,,,,
Fix,GT,37.4524829000,-122.2823455000,136.2169336830275,33.167065,0.1,129.70203,1609800481433,,,,
Fix,GT,37.4522931000,-122.2820582000,136.65926900121485,32.784023,0.1,129.51712,1609800482433,,,,
Fix,GT,37.4521060000,-122.2817734000,137.02494608475718,32.60712,0.1,129.4171,1609800483433,,,,
Fix,GT,37.4519192000,-122.2814884000,137.3119453401123,32.696396,0.1,129.41612,1609800484433,,,,
Fix,GT,37.4517320000,-122.2812022000,137.54794913498336,32.817936,0.1,129.18591,1609800485433,,,,
Fix,GT,37.4515445000,-122.2809143000,137.7532821747077,32.95778,0.1,129.29544,1609800486433,,,,
Fix,GT,37.4513560000,-122.2806273000,137.87961225154868,32.825554,0.1,129.61092,1609800487433,,,,
Fix,GT,37.4511675000,-122.2803426000,137.93694500332094,32.677414,0.1,129.84787,1609800488433,,,,
Fix,GT,37.4509789000,-122.2800596000,137.92861428867218,32.633743,0.1,129.81505,1609800489433,,,,
Fix,GT,37.4507913000,-122.2797743000,137.82027906820713,32.72079,0.1,129.19122,1609800490433,,,,
Fix,GT,37.4506057000,-122.2794894000,137.69228952644335,32.3844,0.1,129.2525,1609800491433,,,,
Fix,GT,37.4504218000,-122.2792078000,137.46928918170306,32.04339,0.1,129.2139,1609800492433,,,,
Fix,GT,37.4502404000,-122.2789288000,137.23595356176702,31.690199,0.1,129.15121,1609800493433,,,,
Fix,GT,37.4500608000,-122.2786525000,136.90762099054427,31.394314,0.1,129.20718,1609800494433,,,,
Fix,GT,37.4498826000,-122.2783792000,136.47295908781462,31.100681,0.1,129.39252,1609800495433,,,,
Fix,GT,37.4497050000,-122.2781093000,136.07461884573604,30.882267,0.1,129.6224,1609800496433,,,,
Fix,GT,37.4495268000,-122.2778397000,135.54762839590694,31.176361,0.1,129.57983,1609800497433,,,,
Fix,GT,37.4493459000,-122.2775661000,135.0299546078022,31.689722,0.1,129.78824,1609800498433,,,,
Fix,GT,37.4491619000,-122.2772917000,134.38462559163963,31.740303,0.1,130.25554,1609800499433,,,,
Fix,GT,37.4489766000,-122.2770184000,133.67329390436498,31.78993,0.1,130.45848,1609800500433,,,,
Fix,GT,37.4487901000,-122.2767448000,132.8702934188068,31.904835,0.1,130.55789,1609800501433,,,,
Fix,GT,37.4486022000,-122.2764706000,131.9769672511784,32.13366,0.1,130.8049,1609800502433,,,,
Fix,GT,37.4484114000,-122.2761952000,131.05363150403446,32.42768,0.1,131.1191,1609800503433,,,,
Fix,GT,37.4482182000,-122.2759182000,130.138960236819,32.707634,0.1,131.10991,1609800504433,,,,
Fix,GT,37.4480235000,-122.2756386000,129.2096334246071,33.008415,0.1,131.15388,1609800505433,,,,
Fix,GT,37.4478267000,-122.2753569000,128.24196275978966,33.28311,0.1,131.17226,1609800506433,,,,
Fix,GT,37.4476283000,-122.2750728000,127.27630431993748,33.530724,0.1,131.24382,1609800507433,,,,
Fix,GT,37.4474283000,-122.2747873000,126.31329924269448,33.735,0.1,131.29828,1609800508433,,,,
Fix,GT,37.4472271000,-122.2745002000,125.34997315645933,33.94016,0.1,131.31464,1609800509433,,,,
Fix,GT,37.4470246000,-122.2742114000,124.39829596354798,34.054783,0.1,131.32472,1609800510433,,,,
Fix,GT,37.4468221000,-122.2739233000,123.5496275806222,33.92826,0.1,131.45203,1609800511433,,,,
Fix,GT,37.4466199000,-122.2736363000,122.8159596027865,33.854767,0.1,131.37392,1609800512433,,,,
Fix,GT,37.4464187000,-122.2733496000,122.23695628277869,33.69966,0.1,131.28728,1609800513433,,,,
Fix,GT,37.4462197000,-122.2730646000,121.9126228479522,33.327873,0.1,131.18996,1609800514433,,,,
Fix,GT,37.4460231000,-122.2727823000,121.65795650605014,33.01912,0.1,131.20625,1609800515433,,,,
Fix,GT,37.4458288000,-122.2725019000,121.50995171813861,32.72837,0.1,130.59427,1609800516433,,,,
Fix,GT,37.4456406000,-122.2722190000,121.38494743312185,32.477615,0.1,129.03893,1609800517433,,,,
Fix,GT,37.4454608000,-122.2719311000,121.3142800853027,32.239426,0.1,127.13075,1609800518433,,,,
Fix,GT,37.4452901000,-122.2716379000,121.31561437153186,31.998798,0.1,125.21117,1609800519433,,,,
Fix,GT,37.4451284000,-122.2713400000,121.38961267619516,31.795856,0.1,123.1869,1609800520433,,,,
Fix,GT,37.4449751000,-122.2710375000,121.5559448468266,31.633314,0.1,121.884964,1609800521433,,,,
Fix,GT,37.4448272000,-122.2707331000,121.87961020007742,31.428516,0.1,120.77327,1609800522433,,,,
Fix,GT,37.4446864000,-122.2704266000,122.19428026398464,31.180325,0.1,119.03591,1609800523433,,,,
Fix,GT,37.4445553000,-122.2701169000,122.55460221385033,30.879007,0.1,116.93298,1609800524433,,,,
Fix,GT,37.4444335000,-122.2698041000,122.9236080157425,30.758566,0.1,115.2581,1609800525433,,,,
Fix,GT,37.4443186000,-122.2694866000,123.20794010623104,30.920977,0.1,113.52296,1609800526433,,,,
Fix,GT,37.4442111000,-122.2691647000,123.52427414876547,30.821938,0.1,111.97298,1609800527433,,,,
Fix,GT,37.4441114000,-122.2688404000,123.96194876120308,30.705536,0.1,110.23898,1609800528433,,,,
Fix,GT,37.4440195000,-122.2685131000,124.2852768957896,30.73225,0.1,108.62135,1609800529433,,,,
Fix,GT,37.4439344000,-122.2681823000,124.64294253658227,30.77695,0.1,107.22567,1609800530433,,,,
Fix,GT,37.4438556000,-122.2678489000,124.99826947478005,30.76152,0.1,105.8033,1609800531433,,,,
Fix,GT,37.4437844000,-122.2675127000,125.35727177360855,30.845226,0.1,103.961235,1609800532433,,,,
Fix,GT,37.4437219000,-122.2671723000,125.71394424092978,30.945164,0.1,101.96903,1609800533433,,,,
Fix,GT,37.4436681000,-122.2668289000,126.05260441960786,30.952702,0.1,100.35827,1609800534433,,,,
Fix,GT,37.4436215000,-122.2664841000,126.40027856171241,30.985657,0.1,98.88847,1609800535433,,,,
Fix,GT,37.4435824000,-122.2661361000,126.6982769774786,31.182919,0.1,97.20892,1609800536433,,,,
Fix,GT,37.4435513000,-122.2657846000,126.99294390102932,31.407639,0.1,95.59415,1609800537433,,,,
Fix,GT,37.4435274000,-122.2654307000,127.20227270881787,31.37629,0.099,94.071045,1609800538433,,,,
Fix,GT,37.4435111000,-122.2650774000,127.36594417329798,31.276932,0.1,92.61292,1609800539433,,,,
Fix,GT,37.4435026000,-122.2647238000,127.49861008005655,31.358673,0.1,90.87393,1609800540433,,,,
Fix,GT,37.4435029000,-122.2643685000,127.53094808428091,31.501722,0.1,89.009384,1609800541433,,,,
Fix,GT,37.4435116000,-122.2640118000,127.45161654421645,31.628586,0.1,87.410965,1609800542433,,,,
Fix,GT,37.4435293000,-122.2636553000,127.45361714934006,31.586452,0.1,85.5339,1609800543433,,,,
Fix,GT,37.4435557000,-122.2633002000,127.41428329073233,31.55687,0.1,83.785965,1609800544433,,,,
Fix,GT,37.4435904000,-122.2629458000,127.16428658268455,31.641617,0.099,82.216324,1609800545433,,,,
Fix,GT,37.4436305000,-122.2625907000,126.82495910843727,31.850174,0.1,81.873055,1609800546433,,,,
Fix,GT,37.4436700000,-122.2622327000,126.46695569575331,32.135162,0.1,82.318436,1609800547433,,,,
Fix,GT,37.4437083000,-122.2618712000,126.11862259343616,32.41156,0.1,82.465225,1609800548433,,,,
Fix,GT,37.4437466000,-122.2615071000,125.86628966863054,32.57276,0.1,82.33165,1609800549433,,,,
Fix,GT,37.4437858000,-122.2611414000,125.6629551117685,32.734386,0.1,82.25162,1609800550433,,,,
Fix,GT,37.4438263000,-122.2607739000,125.46561733255794,32.9189,0.1,81.804405,1609800551433,,,,
Fix,GT,37.4438689000,-122.2604050000,125.24828771787634,32.960873,0.1,81.79265,1609800552433,,,,
Fix,GT,37.4439094000,-122.2600376000,124.9339502967257,32.722805,0.1,82.48495,1609800553433,,,,
Fix,GT,37.4439446000,-122.2596708000,124.50028374592557,32.699444,0.099,83.81844,1609800554433,,,,
Fix,GT,37.4439722000,-122.2593027000,123.9899633880259,32.744,0.1,85.408066,1609800555433,,,,
Fix,GT,37.4439915000,-122.2589331000,123.4639592707058,32.822815,0.1,87.08358,1609800556433,,,,
Fix,GT,37.4440005000,-122.2585620000,122.84596585020995,32.92878,0.1,89.51565,1609800557433,,,,
Fix,GT,37.4439973000,-122.2581893000,122.1236307839954,33.029686,0.1,91.57615,1609800558433,,,,
Fix,GT,37.4439830000,-122.2578166000,121.32396241628066,32.970573,0.1,94.12413,1609800559433,,,,
Fix,GT,37.4439558000,-122.2574466000,120.43863204215268,32.790886,0.1,96.31851,1609800560433,,,,
Fix,GT,37.4439187000,-122.2570800000,119.4749716654369,32.63464,0.1,98.04098,1609800561433,,,,
Fix,GT,37.4438735000,-122.2567164000,118.43463589097382,32.557762,0.1,99.81838,1609800562433,,,,
Fix,GT,37.4438186000,-122.2563546000,117.30363773877252,32.65941,0.1,101.916824,1609800563433,,,,
Fix,GT,37.4437516000,-122.2559945000,116.10630585998297,32.79807,0.1,104.388435,1609800564433,,,,
Fix,GT,37.4436716000,-122.2556376000,114.78030571318277,32.81904,0.1,107.02991,1609800565433,,,,
Fix,GT,37.4435800000,-122.2552846000,113.4146396768765,32.915665,0.1,108.9911,1609800566433,,,,
Fix,GT,37.4434792000,-122.2549340000,112.0686446182217,33.04184,0.1,110.59426,1609800567433,,,,
Fix,GT,37.4433699000,-122.2545859000,110.72864281746092,33.197296,0.1,112.424484,1609800568433,,,,
Fix,GT,37.4432511000,-122.2542408000,109.39463715352417,33.3376,0.1,114.29675,1609800569433,,,,
Fix,GT,37.4431218000,-122.2539000000,108.03264465600955,33.45941,0.1,116.76123,1609800570433,,,,
Fix,GT,37.4429803000,-122.2535653000,106.67864138104233,33.63673,0.099,119.17853,1609800571433,,,,
Fix,GT,37.4428272000,-122.2532360000,105.31864706708393,33.832836,0.1,121.40566,1609800572433,,,,
Fix,GT,37.4426629000,-122.2529132000,103.95163696275176,33.915947,0.1,123.713875,1609800573433,,,,
Fix,GT,37.4424882000,-122.2525991000,102.58497874304203,33.86055,0.1,126.0874,1609800574433,,,,
Fix,GT,37.4423051000,-122.2522942000,101.27697359932858,33.74069,0.1,127.9125,1609800575433,,,,
Fix,GT,37.4421143000,-122.2519982000,99.92597096294548,33.626186,0.1,129.92589,1609800576433,,,,
Fix,GT,37.4419154000,-122.2517125000,98.49563899639907,33.527195,0.1,132.3619,1609800577433,,,,
Fix,GT,37.4417097000,-122.2514361000,97.29630121149967,33.402096,0.1,133.4442,1609800578433,,,,
Fix,GT,37.4415022000,-122.2511638000,96.08730883758835,33.27926,0.1,133.93556,1609800579433,,,,
Fix,GT,37.4412939000,-122.2508939000,94.75164124657749,33.1876,0.1,133.99289,1609800580433,,,,
Fix,GT,37.4410867000,-122.2506244000,93.40964000082886,33.096077,0.1,133.94208,1609800581433,,,,
Fix,GT,37.4408800000,-122.2503553000,92.1476392798204,33.012085,0.1,133.67981,1609800582433,,,,
Fix,GT,37.4406752000,-122.2500855000,90.80997532810397,32.92113,0.1,133.58687,1609800583433,,,,
Fix,GT,37.4404709000,-122.2498166000,89.5159730037958,32.82746,0.1,133.57578,1609800584433,,,,
Fix,GT,37.4402673000,-122.2495482000,88.20230598002672,32.74353,0.1,133.57236,1609800585433,,,,
Fix,GT,37.4400639000,-122.2492808000,86.90430744025616,32.659958,0.1,133.71527,1609800586433,,,,
Fix,GT,37.4398601000,-122.2490153000,85.67397563202985,32.58191,0.1,134.09212,1609800587433,,,,
Fix,GT,37.4396551000,-122.2487518000,84.40630753719688,32.577488,0.1,134.38043,1609800588433,,,,
Fix,GT,37.4394490000,-122.2484895000,82.93964716620007,32.61784,0.1,134.73676,1609800589433,,,,
Fix,GT,37.4392415000,-122.2482284000,81.61897511588381,32.623085,0.1,134.9765,1609800590433,,,,
Fix,GT,37.4390337000,-122.2479682000,80.298972036529,32.561172,0.1,135.05264,1609800591433,,,,
Fix,GT,37.4388263000,-122.2477095000,78.993973151526,32.271736,0.1,135.16476,1609800592433,,,,
Fix,GT,37.4386216000,-122.2474554000,77.64597842107469,31.61763,0.1,135.6401,1609800593433,,,,
Fix,GT,37.4384181000,-122.2472120000,76.49863576243115,30.817837,0.1,137.03043,1609800594433,,,,
Fix,GT,37.4382153000,-122.2469806000,75.22929925370681,30.028141,0.1,138.56993,1609800595433,,,,
Fix,GT,37.4380127000,-122.2467627000,73.99863677315079,29.229582,0.1,139.99539,1609800596433,,,,
Fix,GT,37.4378123000,-122.2465549000,72.78731317131701,28.556122,0.1,140.57202,1609800597433,,,,
Fix,GT,37.4376155000,-122.2463526000,71.58697058075586,27.877583,0.1,140.658,1609800598433,,,,
Fix,GT,37.4374243000,-122.2461561000,70.44996841301804,26.99527,0.1,140.72432,1609800599433,,,,
Fix,GT,37.4372394000,-122.2459656000,69.44329955717194,26.205708,0.1,140.66257,1609800600433,,,,
Fix,GT,37.4370586000,-122.2457782000,68.32730442016418,25.83294,0.1,140.53522,1609800601433,,,,
Fix,GT,37.4368821000,-122.2455934000,67.18529994646133,25.234596,0.1,140.02089,1609800602433,,,,
Fix,GT,37.4367101000,-122.2454105000,65.9113036257097,24.887447,0.1,139.45108,1609800603433,,,,
Fix,GT,37.4365423000,-122.2452284000,64.6189737435734,24.30584,0.1,138.87698,1609800604433,,,,
Fix,GT,37.4363814000,-122.2450505000,63.311637773150096,23.22936,0.1,138.41064,1609800605433,,,,
Fix,GT,37.4362285000,-122.2448802000,62.11030155147478,22.352253,0.1,138.42133,1609800606433,,,,
Fix,GT,37.4360789000,-122.2447149000,60.96163810030566,21.830257,0.1,138.61447,1609800607433,,,,
Fix,GT,37.4359355000,-122.2445566000,59.89163338545359,20.320587,0.1,138.65387,1609800608433,,,,
Fix,GT,37.4358067000,-122.2444145000,59.027963974871,17.767763,0.1,138.70615,1609800609433,,,,
Fix,GT,37.4356939000,-122.2442899000,58.40762380150329,15.744944,0.1,138.51282,1609800610433,,,,
Fix,GT,37.4355950000,-122.2441805000,58.033287574394535,13.4171505,0.1,138.64758,1609800611433,,,,
Fix,GT,37.4355136000,-122.2440908000,57.82328532869542,10.641964,0.1,138.80972,1609800612433,,,,
Fix,GT,37.4354512000,-122.2440224000,57.69295097960162,7.619871,0.1,138.92943,1609800613433,,,,
Fix,GT,37.4354092000,-122.2439764000,57.63161889541459,5.00107,0.1,138.9706,1609800614433,,,,
Fix,GT,37.4353819000,-122.2439464000,57.58661594066507,3.080837,0.1,138.9651,1609800615433,,,,
Fix,GT,37.4353654000,-122.2439284000,57.52528520399187,2.1417985,0.1,138.95941,1609800616433,,,,
Fix,GT,37.4353496000,-122.2439110000,57.47095032971947,2.5831146,0.1,138.97589,1609800617433,,,,
Fix,GT,37.4353287000,-122.2438880000,57.42895103133765,3.7090783,0.1,138.97281,1609800618433,,,,
Fix,GT,37.4352979000,-122.2438540000,57.356618703575805,5.4253597,0.1,138.76279,1609800619433,,,,
