MessageType,Provider,LatitudeDegrees,LongitudeDegrees,AltitudeMeters,SpeedMps,AccuracyMeters,BearingDegrees,UnixTimeMillis,SpeedAccuracyMps,BearingAccuracyDegrees,elapsedRealtimeNanos,VerticalAccuracyMeters
Fix,GT,37.3713137000,-122.0479783000,9.628049563525622,0.0017620183,0.1,195.26366,1615417983440,,,,
Fix,GT,37.3713137000,-122.0479783000,9.628050137402113,0.0011682786,0.1,195.26367,1615417984440,,,,
Fix,GT,37.3713137000,-122.0479783000,9.628050137402113,0.002140163,0.1,195.26366,1615417985440,,,,
Fix,GT,37.3713137000,-122.0479783000,9.628049850463867,0.0017481004,0.1,195.26376,1615417986440,,,,
Fix,GT,37.3713137000,-122.0479783000,9.628049850463867,0.0012459351,0.1,195.26382,1615417987440,,,,
Fix,GT,37.3713137000,-122.0479783000,9.628049563525622,0.0021874793,0.1,195.26384,1615417988440,,,,
Fix,GT,37.3713137000,-122.0479783000,9.628049850463867,0.0014062605,0.1,195.26395,1615417989440,,,,
Fix,GT,37.3713137000,-122.0479783000,9.628049850463867,0.001,0.1,195.2639,1615417990440,,,,
Fix,GT,37.3713137000,-122.0479783000,9.627049446105957,0.001245935,0.1,195.26385,1615417991440,,,,
Fix,GT,37.3713137000,-122.0479783000,9.626643121902447,0.0017481004,0.1,195.26393,1615417992440,,,,
Fix,GT,37.3713127000,-122.0479786000,9.619050025939941,0.4052093,0.1,195.15088,1615417993440,,,,
Fix,GT,37.3713062000,-122.0479799000,9.621455918365882,1.0207021,0.1,193.17883,1615417994440,,,,
Fix,GT,37.3712952000,-122.0479812000,9.632456272518453,1.4269094,0.1,189.6866,1615417995440,,,,
Fix,GT,37.3712810000,-122.0479828000,9.642862539172114,1.7248363,0.1,187.36737,1615417996440,,,,
Fix,GT,37.3712644000,-122.0479862000,9.66726874520785,1.9494159,0.1,188.97578,1615417997440,,,,
Fix,GT,37.3712490000,-122.0479960000,9.712487016554007,1.6439478,0.1,201.46461,1615417998440,,,,
Fix,GT,37.3712404000,-122.0480119000,9.749268623414423,1.5099213,0.1,221.11118,1615417999440,,,,
Fix,GT,37.3712363000,-122.0480322000,9.77048701561057,1.8170516,0.1,242.49507,1615418000440,,,,
Fix,GT,37.3712375000,-122.0480565000,9.787643272812772,2.1901379,0.1,262.85825,1615418001440,,,,
Fix,GT,37.3712412000,-122.0480837000,9.809268089714465,2.5558646,0.1,274.70218,1615418002440,,,,
Fix,GT,37.3712463000,-122.0481145000,9.844081242891889,3.0292087,0.1,280.3608,1615418003440,,,,
Fix,GT,37.3712533000,-122.0481506000,9.899487292642618,3.4213648,0.1,282.8136,1615418004440,,,,
Fix,GT,37.3712603000,-122.0481886000,9.954862823605453,3.3948169,0.1,283.0578,1615418005440,,,,
Fix,GT,37.3712670000,-122.0482257000,10.071049265176129,3.2711225,0.1,282.9716,1615418006440,,,,
Fix,GT,37.3712736000,-122.0482621000,9.974206014454694,3.3264318,0.1,283.0047,1615418007440,,,,
Fix,GT,37.3712810000,-122.0482987000,9.934237456463421,3.3568783,0.1,284.23004,1615418008440,,,,
Fix,GT,37.3712893000,-122.0483353000,9.872362224221888,3.352356,0.1,285.8401,1615418009440,,,,
Fix,GT,37.3712976000,-122.0483709000,9.852050121189649,3.1082797,0.1,286.1996,1615418010440,,,,
Fix,GT,37.3713038000,-122.0484008000,9.88023698804085,2.3290005,0.1,284.70718,1615418011440,,,,
Fix,GT,37.3713076000,-122.0484204000,9.909643400853838,1.1913848,0.1,284.0223,1615418012440,,,,
Fix,GT,37.3713088000,-122.0484271000,9.909643696226112,0.19872066,0.1,283.87228,1615418013440,,,,
Fix,GT,37.3713092000,-122.0484293000,9.909049692480266,0.2922117,0.1,283.8248,1615418014440,,,,
Fix,GT,37.3713103000,-122.0484344000,9.912049293518066,0.66869426,0.1,283.70383,1615418015440,,,,
Fix,GT,37.3713124000,-122.0484457000,9.9292688369394,1.4299785,0.1,283.45544,1615418016440,,,,
Fix,GT,37.3713160000,-122.0484659000,9.970268638138236,2.1746466,0.1,282.962,1615418017440,,,,
Fix,GT,37.3713202000,-122.0484903000,9.990080558865998,2.155693,0.1,282.36066,1615418018440,,,,
Fix,GT,37.3713243000,-122.0485130000,10.025486830089534,2.0312746,0.1,282.7176,1615418019440,,,,
Fix,GT,37.3713320000,-122.0485338000,10.009955425833681,1.7371709,0.1,291.45767,1615418020440,,,,
Fix,GT,37.3713454000,-122.0485460000,9.820705618205182,1.8486178,0.1,311.4705,1615418021440,,,,
Fix,GT,37.3713657000,-122.0485526000,9.816206384636502,2.4293284,0.1,334.68698,1615418022440,,,,
Fix,GT,37.3713925000,-122.0485515000,9.941268354628704,3.3416584,0.1,356.88956,1615418023440,,,,
Fix,GT,37.3714290000,-122.0485422000,9.977861992266753,4.8561363,0.1,10.524967,1615418024440,,,,
Fix,GT,37.3714772000,-122.0485247000,9.952424752705326,6.0148087,0.1,16.082653,1615418025440,,,,
Fix,GT,37.3715290000,-122.0485030000,9.897611529174497,6.0209923,0.1,18.869705,1615418026440,,,,
Fix,GT,37.3715789000,-122.0484783000,9.83658075339082,5.8237123,0.1,22.314842,1615418027440,,,,
Fix,GT,37.3716224000,-122.0484493000,9.760237099620696,4.995476,0.1,29.297215,1615418028440,,,,
Fix,GT,37.3716554000,-122.0484176000,9.710487449225724,4.4010534,0.1,38.88992,1615418029440,,,,
Fix,GT,37.3716814000,-122.0483803000,9.6948625860214,4.454257,0.1,49.300297,1615418030440,,,,
Fix,GT,37.3717044000,-122.0483351000,9.70348718988447,4.9973965,0.1,58.32841,1615418031440,,,,
Fix,GT,37.3717232000,-122.0482794000,9.729299657587092,5.703566,0.1,68.58003,1615418032440,,,,
Fix,GT,37.3717351000,-122.0482115000,9.77208100943892,6.569688,0.1,79.629364,1615418033440,,,,
Fix,GT,37.3717349000,-122.0481318000,9.774049758911133,7.5122156,0.1,93.40378,1615418034440,,,,
Fix,GT,37.3717206000,-122.0480431000,9.75983077175141,8.523915,0.1,103.06977,1615418035440,,,,
Fix,GT,37.3716997000,-122.0479442000,9.736643631871345,9.583745,0.1,104.99051,1615418036440,,,,
Fix,GT,37.3716766000,-122.0478345000,9.721861770509179,10.465349,0.1,104.548485,1615418037440,,,,
Fix,GT,37.3716528000,-122.0477171000,9.69023711407334,10.95141,0.1,104.32749,1615418038440,,,,
Fix,GT,37.3716277000,-122.0475946000,9.647611824397757,11.486908,0.1,104.474594,1615418039440,,,,
Fix,GT,37.3716012000,-122.0474659000,9.609987215397382,12.040783,0.1,104.38847,1615418040440,,,,
Fix,GT,37.3715740000,-122.0473319000,9.543799571839543,12.381615,0.1,104.432976,1615418041440,,,,
Fix,GT,37.3715455000,-122.0471961000,9.492424997622322,12.530052,0.1,104.89522,1615418042440,,,,
Fix,GT,37.3715158000,-122.0470576000,9.423424857857867,12.8911915,0.1,105.17556,1615418043440,,,,
Fix,GT,37.3714857000,-122.0469153000,9.357018448411225,13.149204,0.1,104.80909,1615418044440,,,,
Fix,GT,37.3714555000,-122.0467706000,9.282612328744023,13.344812,0.1,104.66389,1615418045440,,,,
Fix,GT,37.3714249000,-122.0466238000,9.216424416831643,13.532814,0.1,104.65512,1615418046440,,,,
Fix,GT,37.3713937000,-122.0464748000,9.138173808006087,13.75584,0.1,104.930786,1615418047440,,,,
Fix,GT,37.3713615000,-122.0463234000,8.994393730792751,13.970806,0.1,104.914375,1615418048440,,,,
Fix,GT,37.3713291000,-122.0461699000,8.94139301222748,14.156992,0.1,104.87606,1615418049440,,,,
Fix,GT,37.3712962000,-122.0460146000,8.87442468356386,14.308138,0.1,104.88566,1615418050440,,,,
Fix,GT,37.3712635000,-122.0458582000,8.829986913807886,14.3349285,0.1,104.761505,1615418051440,,,,
Fix,GT,37.3712309000,-122.0457025000,8.783424252124234,14.174933,0.1,104.84038,1615418052440,,,,
Fix,GT,37.3711984000,-122.0455486000,8.778455893938087,14.02551,0.1,104.81419,1615418053440,,,,
Fix,GT,37.3711663000,-122.0453962000,8.80592439460844,13.90139,0.1,104.95807,1615418054440,,,,
Fix,GT,37.3711335000,-122.0452452000,8.847643390036978,13.843973,0.1,105.44093,1615418055440,,,,
Fix,GT,37.3710998000,-122.0450950000,8.84204986220746,13.754558,0.1,105.78989,1615418056440,,,,
Fix,GT,37.3710660000,-122.0449460000,8.841830852027442,13.68025,0.1,105.925354,1615418057440,,,,
Fix,GT,37.3710323000,-122.0447977000,8.812049603103105,13.633183,0.1,106.0175,1615418058440,,,,
Fix,GT,37.3709985000,-122.0446503000,8.769830612120245,13.538979,0.1,106.08601,1615418059440,,,,
Fix,GT,37.3709649000,-122.0445037000,8.699049690394105,13.504261,0.1,106.0722,1615418060440,,,,
Fix,GT,37.3709312000,-122.0443577000,8.633611882572097,13.380934,0.1,106.22183,1615418061440,,,,
Fix,GT,37.3708971000,-122.0442141000,8.544986676571284,13.178999,0.1,106.877914,1615418062440,,,,
Fix,GT,37.3708621000,-122.0440717000,8.444549968097334,13.215437,0.1,107.26769,1615418063440,,,,
Fix,GT,37.3708269000,-122.0439296000,8.326799664026794,13.126379,0.1,107.32781,1615418064440,,,,
Fix,GT,37.3707916000,-122.0437886000,8.229206373603972,13.059025,0.1,107.545555,1615418065440,,,,
Fix,GT,37.3707560000,-122.0436482000,8.142768718058505,13.034788,0.1,107.792404,1615418066440,,,,
Fix,GT,37.3707200000,-122.0435082000,8.037799478257085,13.02857,0.1,107.86216,1615418067440,,,,
Fix,GT,37.3706844000,-122.0433681000,7.954424993279758,13.025913,0.1,107.73216,1615418068440,,,,
Fix,GT,37.3706488000,-122.0432278000,7.870580899354593,13.069361,0.1,107.7801,1615418069440,,,,
Fix,GT,37.3706126000,-122.0430866000,7.775799594908605,13.20993,0.1,107.84791,1615418070440,,,,
Fix,GT,37.3705760000,-122.0429439000,7.705206436217168,13.356102,0.1,108.0009,1615418071440,,,,
Fix,GT,37.3705386000,-122.0427997000,7.632643960716635,13.489171,0.1,107.9851,1615418072440,,,,
Fix,GT,37.3705016000,-122.0426547000,7.582174793242473,13.452451,0.1,107.817856,1615418073440,,,,
Fix,GT,37.3704645000,-122.0425105000,7.492581347880986,13.369266,0.1,107.79515,1615418074440,,,,
Fix,GT,37.3704285000,-122.0423676000,7.421206037819729,13.163652,0.1,107.534325,1615418075440,,,,
Fix,GT,37.3703928000,-122.0422274000,7.354018661676548,12.9081745,0.1,107.840935,1615418076440,,,,
Fix,GT,37.3703571000,-122.0420902000,7.28461287918789,12.661985,0.1,108.21254,1615418077440,,,,
Fix,GT,37.3703219000,-122.0419557000,7.226018878220202,12.406597,0.1,108.19341,1615418078440,,,,
Fix,GT,37.3702875000,-122.0418240000,7.178206289167065,12.143786,0.1,108.11641,1615418079440,,,,
Fix,GT,37.3702536000,-122.0416948000,7.123425158410612,11.941574,0.1,108.38161,1615418080440,,,,
Fix,GT,37.3702201000,-122.0415693000,7.095237604614255,11.396669,0.1,108.60271,1615418081440,,,,
Fix,GT,37.3701885000,-122.0414528000,7.074050160469113,10.331552,0.1,108.99318,1615418082440,,,,
Fix,GT,37.3701601000,-122.0413509000,7.05164388150061,8.719675,0.1,109.41234,1615418083440,,,,
Fix,GT,37.3701370000,-122.0412688000,7.038050384463375,6.7045,0.1,109.42182,1615418084440,,,,
Fix,GT,37.3701199000,-122.0412069000,7.0216436715730595,4.8382845,0.1,108.963974,1615418085440,,,,
Fix,GT,37.3701089000,-122.0411660000,7.008237427593997,2.8388484,0.1,108.75432,1615418086440,,,,
Fix,GT,37.3701035000,-122.0411463000,7.001456227897734,0.8738397,0.1,108.76801,1615418087440,,,,
Fix,GT,37.3701030000,-122.0411442000,6.993050306828323,0.005470631,0.1,108.78378,1615418088440,,,,
Fix,GT,37.3701030000,-122.0411442000,6.990050047339494,0.0018125239,0.1,108.78324,1615418089440,,,,
Fix,GT,37.3701030000,-122.0411442000,6.989049911499023,0.0,0.1,108.782295,1615418090440,,,,
Fix,GT,37.3701030000,-122.0411442000,6.990049839019775,0.000593738,0.1,108.78242,1615418091440,,,,
Fix,GT,37.3701030000,-122.0411442000,6.989050119788942,0.0,0.1,108.782425,1615418092440,,,,
Fix,GT,37.3701030000,-122.0411442000,6.989050119788942,0.0,0.1,108.78227,1615418093440,,,,
Fix,GT,37.3701030000,-122.0411442000,6.989049911499023,0.0,0.1,108.782425,1615418094440,,,,
Fix,GT,37.3701030000,-122.0411442000,6.989050119788942,0.0014142136,0.1,108.78259,1615418095440,,,,
Fix,GT,37.3701030000,-122.0411442000,6.989049911499023,0.0,0.1,108.78252,1615418096440,,,,
Fix,GT,37.3701030000,-122.0411442000,6.989050119788942,0.0012459343,0.1,108.78255,1615418097440,,,,
Fix,GT,37.3701030000,-122.0411442000,6.989049911499023,0.001,0.1,108.78239,1615418098440,,,,
Fix,GT,37.3701030000,-122.0411442000,6.989050119788942,0.001,0.1,108.78239,1615418099440,,,,
Fix,GT,37.3701030000,-122.0411442000,6.989049911499023,0.001,0.1,108.78249,1615418100440,,,,
Fix,GT,37.3701030000,-122.0411442000,6.989049911499023,0.001,0.1,108.78258,1615418101440,,,,
Fix,GT,37.3701030000,-122.0411442000,6.989050119788942,0.001,0.1,108.78232,1615418102440,,,,
Fix,GT,37.3701030000,-122.0411442000,6.989049911499023,0.001245934,0.1,108.78261,1615418103440,,,,
Fix,GT,37.3701030000,-122.0411442000,6.989050119788942,0.0010000002,0.1,108.7827,1615418104440,,,,
Fix,GT,37.3701030000,-122.0411442000,6.989049911499023,0.001,0.1,108.782684,1615418105440,,,,
Fix,GT,37.3701030000,-122.0411442000,6.989050119788942,0.0,0.1,108.78266,1615418106440,,,,
Fix,GT,37.3701030000,-122.0411442000,6.989049911499023,0.0,0.1,108.78265,1615418107440,,,,
Fix,GT,37.3701030000,-122.0411442000,6.989049911499023,0.0,0.1,108.782524,1615418108440,,,,
Fix,GT,37.3701030000,-122.0411442000,6.989049703209105,0.000406263,0.1,108.78247,1615418109440,,,,
Fix,GT,37.3701030000,-122.0411442000,6.989050119788942,0.0010000002,0.1,108.78254,1615418110440,,,,
Fix,GT,37.3701030000,-122.0411442000,6.989050119788942,0.00040626305,0.1,108.78258,1615418111440,,,,
Fix,GT,37.3701030000,-122.0411442000,6.989050119788942,0.0010000002,0.1,108.7825,1615418112440,,,,
Fix,GT,37.3701030000,-122.0411442000,6.989049703209105,0.0014062631,0.1,108.78234,1615418113440,,,,
Fix,GT,37.3701028000,-122.0411434000,6.981456040201124,0.35542667,0.1,108.78931,1615418114440,,,,
Fix,GT,37.3700996000,-122.0411318000,6.971643956185346,2.0122485,0.1,108.835976,1615418115440,,,,
Fix,GT,37.3700909000,-122.0411000000,6.9622372135822275,3.967945,0.1,108.924644,1615418116440,,,,
Fix,GT,37.3700767000,-122.0410482000,6.944019011288859,5.7607107,0.1,109.01143,1615418117440,,,,
Fix,GT,37.3700572000,-122.0409771000,6.927644013854334,7.401362,0.1,108.98418,1615418118440,,,,
Fix,GT,37.3700339000,-122.0408917000,6.907018624542616,8.541849,0.1,108.986824,1615418119440,,,,
Fix,GT,37.3700073000,-122.0407944000,6.8866437125796836,9.674494,0.1,108.834274,1615418120440,,,,
Fix,GT,37.3699779000,-122.0406850000,6.889643495052539,10.781377,0.1,108.525894,1615418121440,,,,
Fix,GT,37.3699460000,-122.0405635000,6.867237630369232,11.867199,0.1,108.12064,1615418122440,,,,
Fix,GT,37.3699120000,-122.0404312000,6.839456730843111,12.699759,0.1,107.822586,1615418123440,,,,
Fix,GT,37.3698763000,-122.0402906000,6.823831378404748,13.420294,0.1,107.78922,1615418124440,,,,
Fix,GT,37.3698388000,-122.0401437000,6.791237416507784,13.789196,0.1,107.698685,1615418125440,,,,
Fix,GT,37.3698009000,-122.0399955000,6.760425222932241,13.766195,0.1,107.90862,1615418126440,,,,
Fix,GT,37.3697629000,-122.0398477000,6.7072064722497515,13.745951,0.1,107.96034,1615418127440,,,,
Fix,GT,37.3697247000,-122.0397000000,6.619393914160469,13.751997,0.1,107.978516,1615418128440,,,,
Fix,GT,37.3696867000,-122.0395523000,6.58908113026628,13.748356,0.1,107.900894,1615418129440,,,,
Fix,GT,37.3696487000,-122.0394044000,6.597706427459116,13.854072,0.1,108.00988,1615418130440,,,,
Fix,GT,37.3696095000,-122.0392531000,6.62023721471482,14.340027,0.1,107.897285,1615418131440,,,,
Fix,GT,37.3695695000,-122.0390965000,6.6234876792153585,14.679141,0.1,107.78564,1615418132440,,,,
Fix,GT,37.3695294000,-122.0389398000,6.625612640805656,14.482798,0.1,107.84692,1615418133440,,,,
Fix,GT,37.3694900000,-122.0387855000,6.58983144712235,14.191225,0.1,107.83346,1615418134440,,,,
Fix,GT,37.3694509000,-122.0386346000,6.5520501136779785,13.913071,0.1,108.0456,1615418135440,,,,
Fix,GT,37.3694125000,-122.0384869000,6.5278311694891045,13.623356,0.1,108.03159,1615418136440,,,,
Fix,GT,37.3693752000,-122.0383421000,6.52383107131206,13.331083,0.1,107.96852,1615418137440,,,,
Fix,GT,37.3693386000,-122.0382004000,6.495019112586874,13.049734,0.1,107.93236,1615418138440,,,,
Fix,GT,37.3693029000,-122.0380612000,6.4528311679676875,12.923525,0.1,107.7671,1615418139440,,,,
Fix,GT,37.3692672000,-122.0379208000,6.446425276165783,13.164635,0.1,107.72567,1615418140440,,,,
Fix,GT,37.3692309000,-122.0377782000,6.436018903849913,13.289887,0.1,107.775536,1615418141440,,,,
Fix,GT,37.3691947000,-122.0376355000,6.407237591268654,13.249802,0.1,107.68236,1615418142440,,,,
Fix,GT,37.3691587000,-122.0374921000,6.381831451539753,13.448833,0.1,107.328606,1615418143440,,,,
Fix,GT,37.3691238000,-122.0373452000,6.36342490101265,13.671167,0.1,106.18659,1615418144440,,,,
Fix,GT,37.3690909000,-122.0371958000,6.344268711151813,13.823832,0.1,105.27008,1615418145440,,,,
Fix,GT,37.3690583000,-122.0370427000,6.310643515645978,14.27375,0.1,104.786606,1615418146440,,,,
Fix,GT,37.3690261000,-122.0368840000,6.244393528962405,14.732687,0.1,103.84564,1615418147440,,,,
Fix,GT,37.3689949000,-122.0367198000,6.191862337079115,15.143404,0.1,103.19674,1615418148440,,,,
Fix,GT,37.3689641000,-122.0365519000,6.127612764836272,15.322929,0.1,103.002914,1615418149440,,,,
Fix,GT,37.3689327000,-122.0363813000,6.087643654109058,15.788164,0.1,102.94928,1615418150440,,,,
Fix,GT,37.3689007000,-122.0362035000,6.050643951655445,16.44072,0.1,102.73821,1615418151440,,,,
Fix,GT,37.3688677000,-122.0360196000,6.033050060272217,16.973358,0.1,102.75953,1615418152440,,,,
Fix,GT,37.3688333000,-122.0358303000,6.016237424278103,17.320362,0.1,103.032005,1615418153440,,,,
Fix,GT,37.3687980000,-122.0356390000,5.996768308488868,17.471092,0.1,103.09086,1615418154440,,,,
Fix,GT,37.3687619000,-122.0354462000,5.956425297199587,17.612179,0.1,103.26029,1615418155440,,,,
Fix,GT,37.3687257000,-122.0352529000,5.9200503206268,17.568441,0.1,103.132225,1615418156440,,,,
Fix,GT,37.3686905000,-122.0350595000,5.885268789294969,17.573256,0.1,103.056145,1615418157440,,,,
Fix,GT,37.3686536000,-122.0348668000,5.884487637401207,17.536621,0.1,103.86992,1615418158440,,,,
Fix,GT,37.3686139000,-122.0346760000,5.851831160719087,17.362299,0.1,105.35214,1615418159440,,,,
Fix,GT,37.3685707000,-122.0344888000,5.798424954648709,17.174335,0.1,106.75285,1615418160440,,,,
Fix,GT,37.3685239000,-122.0343043000,5.77308134138741,17.126905,0.1,108.54829,1615418161440,,,,
Fix,GT,37.3684721000,-122.0341226000,5.7614247769374884,17.043541,0.1,110.550064,1615418162440,,,,
Fix,GT,37.3684158000,-122.0339441000,5.721456496595351,16.936396,0.1,112.320885,1615418163440,,,,
Fix,GT,37.3683565000,-122.0337686000,5.6837999680965225,16.811033,0.1,113.52277,1615418164440,,,,
Fix,GT,37.3682948000,-122.0335967000,5.675206378312822,16.549694,0.1,114.871864,1615418165440,,,,
Fix,GT,37.3682302000,-122.0334300000,5.610018692611106,16.275381,0.1,116.76597,1615418166440,,,,
Fix,GT,37.3681626000,-122.0332690000,5.572612307046242,15.921604,0.1,118.39419,1615418167440,,,,
Fix,GT,37.3680942000,-122.0331147000,5.561612434087124,15.222559,0.1,119.59146,1615418168440,,,,
Fix,GT,37.3680280000,-122.0329722000,5.573456256031022,13.93814,0.1,120.81499,1615418169440,,,,
Fix,GT,37.3679656000,-122.0328446000,5.569831271644944,12.564785,0.1,122.0857,1615418170440,,,,
Fix,GT,37.3679079000,-122.0327320000,5.559237542869596,11.158435,0.1,123.1761,1615418171440,,,,
Fix,GT,37.3678553000,-122.0326339000,5.5468623741830925,9.663245,0.1,124.34941,1615418172440,,,,
Fix,GT,37.3678102000,-122.0325533000,5.541050122411548,7.718362,0.1,125.44196,1615418173440,,,,
Fix,GT,37.3677750000,-122.0324922000,5.531237829986651,5.616315,0.1,125.98501,1615418174440,,,,
Fix,GT,37.3677508000,-122.0324508000,5.5176439600000435,3.6029522,0.1,126.2304,1615418175440,,,,
Fix,GT,37.3677357000,-122.0324249000,5.506643967690536,2.1633422,0.1,126.31121,1615418176440,,,,
Fix,GT,37.3677272000,-122.0324103000,5.501643525212472,0.9862484,0.1,126.26872,1615418177440,,,,
Fix,GT,37.3677243000,-122.0324054000,5.496050044776496,0.25279364,0.1,126.23839,1615418178440,,,,
Fix,GT,37.3677240000,-122.0324050000,5.492050334574287,0.0018784539,0.1,126.23837,1615418179440,,,,
Fix,GT,37.3677240000,-122.0324050000,5.492050334574287,0.002612353,0.1,126.2368,1615418180440,,,,
Fix,GT,37.3677240000,-122.0324050000,5.4930500984191895,0.001,0.1,126.23635,1615418181440,,,,
Fix,GT,37.3677240000,-122.0324050000,5.492050334574287,0.0014142136,0.1,126.236404,1615418182440,,,,
Fix,GT,37.3677240000,-122.0324050000,5.492050007222588,0.0005745431,0.1,126.236404,1615418183440,,,,
Fix,GT,37.3677240000,-122.0324050000,5.492050334574287,0.00059373665,0.1,126.236275,1615418184440,,,,
Fix,GT,37.3677240000,-122.0324050000,5.4920501708984375,0.00059373665,0.1,126.236275,1615418185440,,,,
Fix,GT,37.3677240000,-122.0324050000,5.492050334574287,0.001,0.1,126.23625,1615418186440,,,,
Fix,GT,37.3677240000,-122.0324050000,5.492050007222588,0.0009999999,0.1,126.23632,1615418187440,,,,
Fix,GT,37.3677240000,-122.0324050000,5.4920501708984375,0.00040626348,0.1,126.23641,1615418188440,,,,
Fix,GT,37.3677240000,-122.0324050000,5.492050334574287,0.001,0.1,126.23621,1615418189440,,,,
Fix,GT,37.3677240000,-122.0324050000,5.492050334574287,0.0,0.1,126.23603,1615418190440,,,,
Fix,GT,37.3677240000,-122.0324050000,5.4920501708984375,0.001,0.1,126.23613,1615418191440,,,,
Fix,GT,37.3677240000,-122.0324050000,5.492050334574287,0.00040626363,0.1,126.236244,1615418192440,,,,
Fix,GT,37.3677240000,-122.0324050000,5.4920501708984375,0.0,0.1,126.236336,1615418193440,,,,
Fix,GT,37.3677240000,-122.0324050000,5.4920501708984375,0.0,0.1,126.23618,1615418194440,,,,
Fix,GT,37.3677240000,-122.0324050000,5.492050334574287,0.0,0.1,126.23627,1615418195440,,,,
Fix,GT,37.3677240000,-122.0324050000,5.4920501708984375,0.0,0.1,126.23637,1615418196440,,,,
Fix,GT,37.3677240000,-122.0324050000,5.492050007222588,0.00040626395,0.1,126.236404,1615418197440,,,,
Fix,GT,37.3677240000,-122.0324050000,5.492050007222588,0.0,0.1,126.23657,1615418198440,,,,
Fix,GT,37.3677240000,-122.0324050000,5.492050007222588,0.0,0.1,126.236565,1615418199440,,,,
Fix,GT,37.3677240000,-122.0324050000,5.4920501708984375,0.00040626398,0.1,126.23661,1615418200440,,,,
Fix,GT,37.3677240000,-122.0324050000,5.492050007222588,0.00083966943,0.1,126.23661,1615418201440,,,,
Fix,GT,37.3677240000,-122.0324050000,5.4920501708984375,0.0004062641,0.1,126.23678,1615418202440,,,,
Fix,GT,37.3677240000,-122.0324050000,5.492050007222588,0.0013276336,0.1,126.23668,1615418203440,,,,
Fix,GT,37.3677240000,-122.0324050000,5.492050007222588,0.0020856026,0.1,126.237,1615418204440,,,,
Fix,GT,37.3677240000,-122.0324050000,5.492050334574287,0.0011682801,0.1,126.23679,1615418205440,,,,
Fix,GT,37.3677240000,-122.0324050000,5.492050334574287,0.0019021779,0.1,126.236595,1615418206440,,,,
Fix,GT,37.3677240000,-122.0324050000,5.492050007222588,0.0005937357,0.1,126.23636,1615418207440,,,,
Fix,GT,37.3677240000,-122.0324050000,5.4920501708984375,0.0005937357,0.1,126.2365,1615418208440,,,,
Fix,GT,37.3677240000,-122.0324050000,5.492050007222588,0.0,0.1,126.23658,1615418209440,,,,
Fix,GT,37.3677240000,-122.0324050000,5.4920501708984375,0.0,0.1,126.23661,1615418210440,,,,
Fix,GT,37.3677240000,-122.0324050000,5.492050007222588,0.0,0.1,126.23668,1615418211440,,,,
Fix,GT,37.3677240000,-122.0324050000,5.4920501708984375,0.0012459334,0.1,126.236626,1615418212440,,,,
Fix,GT,37.3677240000,-122.0324050000,5.4920501708984375,0.0012459334,0.1,126.236664,1615418213440,,,,
Fix,GT,37.3677240000,-122.0324050000,5.491050079731636,0.002,0.1,126.23667,1615418214440,,,,
Fix,GT,37.3677237000,-122.0324045000,5.484050110457829,0.310291,0.1,126.2355,1615418215440,,,,
Fix,GT,37.3677194000,-122.0323972000,5.480050086975098,1.3445199,0.1,126.15763,1615418216440,,,,
Fix,GT,37.3677089000,-122.0323787000,5.470643833571728,2.762476,0.1,126.01066,1615418217440,,,,
Fix,GT,37.3676895000,-122.0323454000,5.466456383108039,4.480817,0.1,126.11479,1615418218440,,,,
Fix,GT,37.3676606000,-122.0322962000,5.467237532736988,6.4217625,0.1,126.440704,1615418219440,,,,
Fix,GT,37.3676208000,-122.0322298000,5.463674932779128,8.28272,0.1,127.20266,1615418220440,,,,
Fix,GT,37.3675713000,-122.0321501000,5.456237376215199,9.495821,0.1,128.21776,1615418221440,,,,
Fix,GT,37.3675140000,-122.0320616000,5.437643679104781,10.758049,0.1,129.4558,1615418222440,,,,
Fix,GT,37.3674480000,-122.0319630000,5.421456306933294,12.018997,0.1,130.40723,1615418223440,,,,
Fix,GT,37.3673736000,-122.0318565000,5.406862675783884,12.974924,0.1,131.82277,1615418224440,,,,
Fix,GT,37.3672916000,-122.0317459000,5.357612436113627,13.674057,0.1,133.55331,1615418225440,,,,
Fix,GT,37.3672032000,-122.0316332000,5.348050117492676,14.3471155,0.1,135.20038,1615418226440,,,,
Fix,GT,37.3671082000,-122.0315171000,5.3244251469346295,15.129161,0.1,135.85016,1615418227440,,,,
Fix,GT,37.3670086000,-122.0313951000,5.326268776539791,15.693802,0.1,135.62962,1615418228440,,,,
Fix,GT,37.3669064000,-122.0312703000,5.311425135252108,15.970682,0.1,136.05762,1615418229440,,,,
Fix,GT,37.3668017000,-122.0311445000,5.269424878033803,16.22626,0.1,136.22508,1615418230440,,,,
Fix,GT,37.3666956000,-122.0310166000,5.233237609619977,16.457901,0.1,136.13179,1615418231440,,,,
Fix,GT,37.3665881000,-122.0308874000,5.23464396619903,16.59165,0.1,136.37347,1615418232440,,,,
Fix,GT,37.3664796000,-122.0307574000,5.224831194225175,16.726913,0.1,136.27757,1615418233440,,,,
Fix,GT,37.3663706000,-122.0306257000,5.182643920363063,16.870192,0.1,135.9285,1615418234440,,,,
Fix,GT,37.3662614000,-122.0304931000,5.117456406115423,16.85234,0.1,135.87859,1615418235440,,,,
Fix,GT,37.3661528000,-122.0303611000,5.073456106123757,16.681553,0.1,136.03604,1615418236440,,,,
Fix,GT,37.3660454000,-122.0302315000,5.014831156257003,16.483099,0.1,136.1923,1615418237440,,,,
Fix,GT,37.3659383000,-122.0301027000,4.978237689020375,16.474669,0.1,136.10416,1615418238440,,,,
Fix,GT,37.3658316000,-122.0299729000,4.956425116417051,16.557856,0.1,135.89806,1615418239440,,,,
Fix,GT,37.3657243000,-122.0298418000,4.9250187435729345,16.687675,0.1,135.62874,1615418240440,,,,
Fix,GT,37.3656171000,-122.0297099000,4.898050308227539,16.653805,0.1,135.71397,1615418241440,,,,
Fix,GT,37.3655096000,-122.0295795000,4.878831282790657,16.569681,0.1,136.0679,1615418242440,,,,
Fix,GT,37.3654025000,-122.0294501000,4.875675081487202,16.461823,0.1,136.20108,1615418243440,,,,
Fix,GT,37.3652956000,-122.0293220000,4.8556124578778395,16.355303,0.1,136.42085,1615418244440,,,,
Fix,GT,37.3651893000,-122.0291952000,4.813237533326031,16.211102,0.1,136.46689,1615418245440,,,,
Fix,GT,37.3650843000,-122.0290692000,4.794268995162611,16.04825,0.1,136.1959,1615418246440,,,,
Fix,GT,37.3649807000,-122.0289443000,4.819644004226802,15.886141,0.1,136.1592,1615418247440,,,,
Fix,GT,37.3648778000,-122.0288202000,4.8018313351901725,15.838366,0.1,136.22333,1615418248440,,,,
Fix,GT,37.3647747000,-122.0286964000,4.7477684028743,15.858602,0.1,136.20071,1615418249440,,,,
Fix,GT,37.3646722000,-122.0285714000,4.727487437992423,15.882786,0.1,135.60463,1615418250440,,,,
Fix,GT,37.3645698000,-122.0284460000,4.697831103326635,15.909838,0.1,135.8435,1615418251440,,,,
Fix,GT,37.3644668000,-122.0283208000,4.68283137679424,15.931998,0.1,135.93883,1615418252440,,,,
Fix,GT,37.3643637000,-122.0281957000,4.667862549548346,15.960278,0.1,136.05185,1615418253440,,,,
Fix,GT,37.3642601000,-122.0280705000,4.653237402202876,15.990463,0.1,136.09375,1615418254440,,,,
Fix,GT,37.3641563000,-122.0279452000,4.64542496157128,16.02183,0.1,136.12471,1615418255440,,,,
Fix,GT,37.3640522000,-122.0278195000,4.6196126778119435,16.043198,0.1,136.21693,1615418256440,,,,
Fix,GT,37.3639480000,-122.0276937000,4.599206266694438,16.07866,0.1,136.04292,1615418257440,,,,
Fix,GT,37.3638436000,-122.0275677000,4.563799764067014,16.121552,0.1,136.08641,1615418258440,,,,
Fix,GT,37.3637389000,-122.0274410000,4.547268779334075,16.14224,0.1,136.0814,1615418259440,,,,
Fix,GT,37.3636341000,-122.0273150000,4.565081449443511,16.053541,0.1,136.30838,1615418260440,,,,
Fix,GT,37.3635300000,-122.0271901000,4.565049989072975,15.966927,0.1,136.17151,1615418261440,,,,
Fix,GT,37.3634267000,-122.0270650000,4.565049989072975,15.915976,0.1,135.97401,1615418262440,,,,
Fix,GT,37.3633237000,-122.0269400000,4.546862408276638,15.943245,0.1,136.02924,1615418263440,,,,
Fix,GT,37.3632203000,-122.0268154000,4.486831275824102,15.849403,0.1,136.16212,1615418264440,,,,
Fix,GT,37.3631183000,-122.0266923000,4.4636124043443175,15.594409,0.1,136.12408,1615418265440,,,,
Fix,GT,37.3630179000,-122.0265713000,4.413237304442376,15.319786,0.1,136.1912,1615418266440,,,,
Fix,GT,37.3629197000,-122.0264520000,4.407706387941829,15.03447,0.1,135.71185,1615418267440,,,,
Fix,GT,37.3628238000,-122.0263345000,4.400674767048642,14.740102,0.1,135.6553,1615418268440,,,,
Fix,GT,37.3627296000,-122.0262196000,4.3978622455857135,14.446465,0.1,135.94939,1615418269440,,,,
Fix,GT,37.3626369000,-122.0261076000,4.414862706898816,14.144226,0.1,136.11455,1615418270440,,,,
Fix,GT,37.3625470000,-122.0259992000,4.4486749085424435,13.366144,0.1,136.10587,1615418271440,,,,
Fix,GT,37.3624651000,-122.0259001000,4.480268869575326,11.813805,0.1,136.10881,1615418272440,,,,
Fix,GT,37.3623945000,-122.0258147000,4.516268838230985,9.943818,0.1,136.03394,1615418273440,,,,
Fix,GT,37.3623371000,-122.0257453000,4.556050436379024,7.706198,0.1,136.04474,1615418274440,,,,
Fix,GT,37.3622946000,-122.0256940000,4.575862408254494,5.412409,0.1,136.20462,1615418275440,,,,
Fix,GT,37.3622658000,-122.0256594000,4.588862692899468,3.5269635,0.1,136.30171,1615418276440,,,,
Fix,GT,37.3622481000,-122.0256383000,4.594049793659153,2.0173416,0.1,136.36496,1615418277440,,,,
Fix,GT,37.3622372000,-122.0256252000,4.596050262451172,1.4593134,0.1,136.37581,1615418278440,,,,
Fix,GT,37.3622280000,-122.0256143000,4.5960503994241435,1.48875,0.1,136.36107,1615418279440,,,,
Fix,GT,37.3622166000,-122.0256005000,4.601456468053911,2.1092181,0.1,136.3182,1615418280440,,,,
Fix,GT,37.3621996000,-122.0255801000,4.61186260330436,3.2095125,0.1,136.27301,1615418281440,,,,
Fix,GT,37.3621739000,-122.0255491000,4.6266753485546985,4.812773,0.1,136.18898,1615418282440,,,,
Fix,GT,37.3621376000,-122.0255053000,4.66108122932954,6.273274,0.1,136.04314,1615418283440,,,,
Fix,GT,37.3620929000,-122.0254511000,4.703268780911785,7.5350266,0.1,136.1232,1615418284440,,,,
Fix,GT,37.3620401000,-122.0253883000,4.736675151104805,8.610722,0.1,136.65605,1615418285440,,,,
Fix,GT,37.3619803000,-122.0253179000,4.773862925498719,9.574833,0.1,136.65118,1615418286440,,,,
Fix,GT,37.3619150000,-122.0252397000,4.819456549583634,10.486247,0.1,136.1278,1615418287440,,,,
Fix,GT,37.3618443000,-122.0251535000,4.83208122924016,11.385731,0.1,135.75761,1615418288440,,,,
Fix,GT,37.3617679000,-122.0250609000,4.913862503435226,12.179625,0.1,136.19199,1615418289440,,,,
Fix,GT,37.3616864000,-122.0249632000,4.980706487949178,12.844664,0.1,136.2355,1615418290440,,,,
Fix,GT,37.3616009000,-122.0248604000,5.054300281165268,13.466595,0.1,136.19688,1615418291440,,,,
Fix,GT,37.3615115000,-122.0247538000,5.111706395929247,13.874827,0.1,136.65337,1615418292440,,,,
Fix,GT,37.3614198000,-122.0246455000,5.193487517803135,14.08559,0.1,136.73476,1615418293440,,,,
Fix,GT,37.3613273000,-122.0245354000,5.245675014139934,14.234215,0.1,136.48914,1615418294440,,,,
Fix,GT,37.3612337000,-122.0244240000,5.312300179122104,14.464224,0.1,136.3732,1615418295440,,,,
Fix,GT,37.3611389000,-122.0243090000,5.373081103683006,14.834516,0.1,135.8806,1615418296440,,,,
Fix,GT,37.3610419000,-122.0241905000,5.46248772716595,15.230422,0.1,135.74138,1615418297440,,,,
Fix,GT,37.3609430000,-122.0240690000,5.511675248617848,15.517565,0.1,135.49893,1615418298440,,,,
Fix,GT,37.3608427000,-122.0239454000,5.599487812162181,15.702578,0.1,135.48364,1615418299440,,,,
Fix,GT,37.3607416000,-122.0238205000,5.6694875069864,15.830769,0.1,135.53374,1615418300440,,,,
Fix,GT,37.3606396000,-122.0236946000,5.759112757440022,15.933111,0.1,135.4389,1615418301440,,,,
Fix,GT,37.3605366000,-122.0235681000,5.805675115230997,16.07708,0.1,135.69685,1615418302440,,,,
Fix,GT,37.3604326000,-122.0234407000,5.891519160750306,16.209602,0.1,135.66751,1615418303440,,,,
Fix,GT,37.3603277000,-122.0233128000,5.963925603720554,16.268238,0.1,136.01929,1615418304440,,,,
Fix,GT,37.3602219000,-122.0231856000,6.016862532502387,16.281334,0.1,136.34398,1615418305440,,,,
Fix,GT,37.3601161000,-122.0230583000,6.094519218828012,16.250973,0.1,136.26314,1615418306440,,,,
Fix,GT,37.3600105000,-122.0229315000,6.149300261914362,16.193813,0.1,136.2537,1615418307440,,,,
Fix,GT,37.3599058000,-122.0228049000,6.205925523066895,16.09711,0.1,135.97823,1615418308440,,,,
Fix,GT,37.3598020000,-122.0226790000,6.32951907754375,15.992706,0.1,135.93239,1615418309440,,,,
Fix,GT,37.3596984000,-122.0225540000,6.392081321479964,15.936396,0.1,136.3115,1615418310440,,,,
Fix,GT,37.3595949000,-122.0224299000,6.444331880094325,15.872717,0.1,136.27853,1615418311440,,,,
Fix,GT,37.3594917000,-122.0223058000,6.540675251129699,15.907095,0.1,136.15332,1615418312440,,,,
Fix,GT,37.3593882000,-122.0221810000,6.598925380411785,15.970133,0.1,136.18193,1615418313440,,,,
Fix,GT,37.3592843000,-122.0220558000,6.659081520738312,16.012716,0.1,136.16545,1615418314440,,,,
Fix,GT,37.3591806000,-122.0219310000,6.740300161955844,15.909891,0.1,136.09874,1615418315440,,,,
Fix,GT,37.3590776000,-122.0218063000,6.821081710571804,15.896003,0.1,136.05681,1615418316440,,,,
Fix,GT,37.3589743000,-122.0216816000,6.858862541443301,15.980438,0.1,136.13669,1615418317440,,,,
Fix,GT,37.3588699000,-122.0215556000,6.921269067970343,16.175266,0.1,135.93666,1615418318440,,,,
Fix,GT,37.3587646000,-122.0214281000,6.989675134781521,16.364925,0.1,136.07077,1615418319440,,,,
Fix,GT,37.3586578000,-122.0212993000,7.05933146744988,16.5244,0.1,136.15231,1615418320440,,,,
Fix,GT,37.3585502000,-122.0211695000,7.131456561803944,16.620573,0.1,136.16574,1615418321440,,,,
Fix,GT,37.3584422000,-122.0210396000,7.1739252642096005,16.58017,0.1,136.1484,1615418322440,,,,
Fix,GT,37.3583354000,-122.0209108000,7.246081417801179,16.307959,0.1,136.05301,1615418323440,,,,
Fix,GT,37.3582309000,-122.0207840000,7.315488120409171,15.971104,0.1,135.99712,1615418324440,,,,
Fix,GT,37.3581276000,-122.0206594000,7.355081211975673,15.905958,0.1,136.1247,1615418325440,,,,
Fix,GT,37.3580248000,-122.0205354000,7.408675313081204,15.776997,0.1,136.09857,1615418326440,,,,
Fix,GT,37.3579229000,-122.0204120000,7.455081752482798,15.671631,0.1,135.9703,1615418327440,,,,
Fix,GT,37.3578218000,-122.0202890000,7.458456268933475,15.636383,0.1,135.76965,1615418328440,,,,
Fix,GT,37.3577209000,-122.0201655000,7.449643636943335,15.670883,0.1,135.77531,1615418329440,,,,
Fix,GT,37.3576193000,-122.0200422000,7.420831499314147,15.730183,0.1,135.97769,1615418330440,,,,
Fix,GT,37.3575172000,-122.0199183000,7.390831351155839,15.830379,0.1,136.00232,1615418331440,,,,
Fix,GT,37.3574142000,-122.0197938000,7.332019000320827,15.942235,0.1,136.15778,1615418332440,,,,
Fix,GT,37.3573106000,-122.0196687000,7.233393481018197,15.994838,0.1,136.11737,1615418333440,,,,
Fix,GT,37.3572065000,-122.0195433000,7.135112456982171,16.055502,0.1,136.222,1615418334440,,,,
Fix,GT,37.3571017000,-122.0194178000,7.001143481498673,16.100468,0.1,136.3641,1615418335440,,,,
Fix,GT,37.3569969000,-122.0192920000,6.912831185335563,16.120434,0.1,136.29828,1615418336440,,,,
Fix,GT,37.3568918000,-122.0191662000,6.833987283115732,16.16676,0.1,136.43039,1615418337440,,,,
Fix,GT,37.3567862000,-122.0190402000,6.71358076145772,16.200033,0.1,136.36136,1615418338440,,,,
Fix,GT,37.3566811000,-122.0189130000,6.592174906252069,16.24047,0.1,135.8877,1615418339440,,,,
Fix,GT,37.3565764000,-122.0187848000,6.478581019587068,16.240871,0.1,135.67621,1615418340440,,,,
Fix,GT,37.3564718000,-122.0186569000,6.336362305761668,16.211647,0.1,135.77458,1615418341440,,,,
Fix,GT,37.3563673000,-122.0185295000,6.225612587927884,16.134636,0.1,135.91046,1615418342440,,,,
Fix,GT,37.3562632000,-122.0184034000,6.136799805524163,16.033928,0.1,136.15288,1615418343440,,,,
Fix,GT,37.3561593000,-122.0182785000,6.040143315856199,15.909952,0.1,136.23083,1615418344440,,,,
Fix,GT,37.3560567000,-122.0181547000,5.931174643037878,15.688454,0.1,136.12273,1615418345440,,,,
Fix,GT,37.3559557000,-122.0180329000,5.835581166979239,15.424061,0.1,136.16602,1615418346440,,,,
Fix,GT,37.3558562000,-122.0179133000,5.802424998528181,15.209681,0.1,136.253,1615418347440,,,,
Fix,GT,37.3557575000,-122.0177949000,5.778425112839358,15.125452,0.1,136.30467,1615418348440,,,,
Fix,GT,37.3556596000,-122.0176768000,5.7640498350843785,15.027569,0.1,136.04776,1615418349440,,,,
Fix,GT,37.3555630000,-122.0175593000,5.7462690477444625,14.889486,0.1,135.79413,1615418350440,,,,
Fix,GT,37.3554671000,-122.0174420000,5.77889381459137,14.845325,0.1,135.61177,1615418351440,,,,
Fix,GT,37.3553718000,-122.0173253000,5.847081094683347,14.721968,0.1,135.88245,1615418352440,,,,
Fix,GT,37.3552767000,-122.0172111000,5.896237592433749,14.555017,0.1,136.42293,1615418353440,,,,
Fix,GT,37.3551824000,-122.0170987000,5.927862601157642,14.314899,0.1,136.46704,1615418354440,,,,
Fix,GT,37.3550900000,-122.0169884000,5.967643581301175,14.067619,0.1,136.47456,1615418355440,,,,
Fix,GT,37.3549979000,-122.0168785000,6.004268955297903,14.163542,0.1,136.3905,1615418356440,,,,
Fix,GT,37.3549054000,-122.0167675000,6.062706474836489,14.273895,0.1,136.20004,1615418357440,,,,
Fix,GT,37.3548127000,-122.0166552000,6.105612403164741,14.275688,0.1,135.8573,1615418358440,,,,
Fix,GT,37.3547215000,-122.0165432000,6.142675033931454,14.02474,0.1,135.45982,1615418359440,,,,
Fix,GT,37.3546324000,-122.0164337000,6.181487815293195,13.717169,0.1,135.7857,1615418360440,,,,
Fix,GT,37.3545439000,-122.0163267000,6.232269128628431,13.596329,0.1,136.1418,1615418361440,,,,
Fix,GT,37.3544556000,-122.0162209000,6.2700816127685925,13.501416,0.1,136.35754,1615418362440,,,,
Fix,GT,37.3543679000,-122.0161163000,6.323268830294012,13.4044,0.1,136.5041,1615418363440,,,,
Fix,GT,37.3542806000,-122.0160121000,6.371675318545272,13.366363,0.1,136.42763,1615418364440,,,,
Fix,GT,37.3541936000,-122.0159078000,6.414081665776578,13.349129,0.1,136.27533,1615418365440,,,,
Fix,GT,37.3541070000,-122.0158035000,6.479894217251967,13.306463,0.1,135.96785,1615418366440,,,,
Fix,GT,37.3540214000,-122.0156980000,6.500518971208692,13.36508,0.1,135.15721,1615418367440,,,,
Fix,GT,37.3539375000,-122.0155899000,6.559268893117178,13.344444,0.1,133.79587,1615418368440,,,,
Fix,GT,37.3538561000,-122.0154792000,6.609675047044732,13.328092,0.1,132.16174,1615418369440,,,,
Fix,GT,37.3537773000,-122.0153662000,6.639675257329941,13.281188,0.1,130.57689,1615418370440,,,,
Fix,GT,37.3537011000,-122.0152511000,6.69648758946586,13.226493,0.1,129.33693,1615418371440,,,,
Fix,GT,37.3536268000,-122.0151346000,6.730269098635404,13.203218,0.1,128.38637,1615418372440,,,,
Fix,GT,37.3535537000,-122.0150165000,6.748456660300121,13.333774,0.1,127.52243,1615418373440,,,,
Fix,GT,37.3534806000,-122.0148951000,6.779300255891997,13.613763,0.1,126.93049,1615418374440,,,,
Fix,GT,37.3534068000,-122.0147705000,6.827675064137495,13.8532295,0.1,126.430916,1615418375440,,,,
Fix,GT,37.3533331000,-122.0146435000,6.843456045743423,13.971747,0.1,125.95958,1615418376440,,,,
Fix,GT,37.3532594000,-122.0145152000,6.890894205183486,14.031569,0.1,125.76967,1615418377440,,,,
Fix,GT,37.3531857000,-122.0143862000,6.954519185340018,14.083584,0.1,125.53867,1615418378440,,,,
Fix,GT,37.3531129000,-122.0142560000,7.024269048565884,14.081225,0.1,124.74941,1615418379440,,,,
Fix,GT,37.3530414000,-122.0141245000,7.043675066118396,14.131498,0.1,124.122696,1615418380440,,,,
Fix,GT,37.3529713000,-122.0139909000,7.083862745042779,14.187078,0.1,122.66443,1615418381440,,,,
Fix,GT,37.3529058000,-122.0138533000,7.115643802632121,14.219381,0.1,119.821335,1615418382440,,,,
Fix,GT,37.3528453000,-122.0137118000,7.13686250584783,14.256159,0.1,117.177795,1615418383440,,,,
Fix,GT,37.3527888000,-122.0135669000,7.180487718106434,14.3378725,0.1,115.62115,1615418384440,,,,
Fix,GT,37.3527343000,-122.0134198000,7.179049968719482,14.348877,0.1,114.430756,1615418385440,,,,
Fix,GT,37.3526829000,-122.0132725000,7.192487589358919,14.106659,0.1,113.38092,1615418386440,,,,
Fix,GT,37.3526342000,-122.0131273000,7.2216750420382425,13.808585,0.1,112.64077,1615418387440,,,,
Fix,GT,37.3525879000,-122.0129846000,7.238862479205977,13.508532,0.1,111.83403,1615418388440,,,,
Fix,GT,37.3525447000,-122.0128438000,7.2486438925882055,13.224553,0.1,110.70263,1615418389440,,,,
Fix,GT,37.3525046000,-122.0127049000,7.242268987113249,12.95141,0.1,109.49421,1615418390440,,,,
Fix,GT,37.3524679000,-122.0125678000,7.223643796982373,12.688232,0.1,108.12832,1615418391440,,,,
Fix,GT,37.3524350000,-122.0124323000,7.185268827611168,12.4269085,0.1,105.84186,1615418392440,,,,
Fix,GT,37.3524077000,-122.0122978000,7.145831158882459,12.179025,0.1,103.53508,1615418393440,,,,
Fix,GT,37.3523842000,-122.0121647000,7.105393649867693,11.986933,0.1,102.1307,1615418394440,,,,
Fix,GT,37.3523622000,-122.0120333000,7.034393549612645,11.804098,0.1,101.936356,1615418395440,,,,
Fix,GT,37.3523405000,-122.0119036000,6.965424679063943,11.680286,0.1,101.75035,1615418396440,,,,
Fix,GT,37.3523199000,-122.0117749000,6.891174806951582,11.591687,0.1,101.29925,1615418397440,,,,
Fix,GT,37.3522994000,-122.0116462000,6.763581066186731,11.713442,0.1,101.32272,1615418398440,,,,
Fix,GT,37.3522791000,-122.0115152000,6.6531744833549595,11.934471,0.1,100.825066,1615418399440,,,,
Fix,GT,37.3522594000,-122.0113815000,6.5171432208048685,12.152816,0.1,100.30089,1615418400440,,,,
Fix,GT,37.3522409000,-122.0112454000,6.3895809884622,12.311687,0.1,99.43261,1615418401440,,,,
Fix,GT,37.3522236000,-122.0111070000,6.246768102673855,12.5604315,0.1,98.59596,1615418402440,,,,
Fix,GT,37.3522079000,-122.0109641000,6.063924696209099,13.002967,0.1,97.542534,1615418403440,,,,
Fix,GT,37.3521940000,-122.0108161000,5.914581077928688,13.409357,0.1,96.14522,1615418404440,,,,
Fix,GT,37.3521832000,-122.0106635000,5.758143464217412,13.730263,0.1,94.61495,1615418405440,,,,
Fix,GT,37.3521751000,-122.0105073000,5.578924538703831,13.992201,0.1,93.16226,1615418406440,,,,
Fix,GT,37.3521700000,-122.0103490000,5.409143310734038,14.020728,0.1,91.91557,1615418407440,,,,
Fix,GT,37.3521673000,-122.0101918000,5.231737011204814,13.856407,0.1,90.93724,1615418408440,,,,
Fix,GT,37.3521660000,-122.0100353000,5.049705537729125,13.948126,0.1,90.5596,1615418409440,,,,
Fix,GT,37.3521655000,-122.0098766000,4.8979246014362445,14.176777,0.1,90.18075,1615418410440,,,,
Fix,GT,37.3521654000,-122.0097152000,4.71514333754169,14.430166,0.1,89.92403,1615418411440,,,,
Fix,GT,37.3521660000,-122.0095523000,4.570737027522,14.381992,0.1,89.77735,1615418412440,,,,
Fix,GT,37.3521666000,-122.0093911000,4.445393357519322,14.181808,0.1,89.80202,1615418413440,,,,
Fix,GT,37.3521670000,-122.0092323000,4.361393507964451,13.952494,0.1,89.95102,1615418414440,,,,
Fix,GT,37.3521670000,-122.0090769000,4.293018561894556,13.445983,0.1,90.08768,1615418415440,,,,
Fix,GT,37.3521667000,-122.0089319000,4.219018524300623,12.182972,0.1,90.14128,1615418416440,,,,
Fix,GT,37.3521663000,-122.0088021000,4.157018407756908,10.826756,0.1,90.36244,1615418417440,,,,
Fix,GT,37.3521656000,-122.0086877000,4.114018502843123,9.361004,0.1,90.50178,1615418418440,,,,
Fix,GT,37.3521648000,-122.0085920000,4.0506124509276304,7.581083,0.1,90.58286,1615418419440,,,,
Fix,GT,37.3521643000,-122.0085157000,4.010424945706006,5.9948206,0.1,90.391235,1615418420440,,,,
Fix,GT,37.3521640000,-122.0084588000,3.9774248339159612,4.027706,0.1,90.4187,1615418421440,,,,
Fix,GT,37.3521636000,-122.0084243000,3.9548313001387356,2.1332672,0.1,90.65658,1615418422440,,,,
Fix,GT,37.3521634000,-122.0084086000,3.938643705430053,0.71587956,0.1,90.729935,1615418423440,,,,
Fix,GT,37.3521634000,-122.0084063000,3.92886252880259,0.010580898,0.1,90.74324,1615418424440,,,,
Fix,GT,37.3521634000,-122.0084063000,3.9290499687194824,0.00040628362,0.1,90.74174,1615418425440,,,,
Fix,GT,37.3521634000,-122.0084063000,3.9290499687194824,0.0005937161,0.1,90.74098,1615418426440,,,,
Fix,GT,37.3521634000,-122.0084063000,3.9290498516246686,0.0,0.1,90.74105,1615418427440,,,,
Fix,GT,37.3521634000,-122.0084063000,3.928049924133717,0.00083964074,0.1,90.740814,1615418428440,,,,
Fix,GT,37.3521634000,-122.0084063000,3.928049924133717,0.0015937155,0.1,90.74041,1615418429440,,,,
Fix,GT,37.3521634000,-122.0084063000,3.928050158263744,0.0017338723,0.1,90.74044,1615418430440,,,,
Fix,GT,37.3521634000,-122.0084063000,3.9280500411987305,0.0008396398,0.1,90.740875,1615418431440,,,,
Fix,GT,37.3521634000,-122.0084063000,3.928050158263744,0.0005937149,0.1,90.74112,1615418432440,,,,
Fix,GT,37.3521634000,-122.0084063000,3.928050158263744,0.00040628546,0.1,90.74133,1615418433440,,,,
Fix,GT,37.3521634000,-122.0084063000,3.9280500411987305,0.0012459245,0.1,90.741585,1615418434440,,,,
Fix,GT,37.3521634000,-122.0084063000,3.9280500411987305,0.00040628595,0.1,90.74192,1615418435440,,,,
Fix,GT,37.3521634000,-122.0084057000,3.921050188572707,0.28554875,0.1,90.74804,1615418436440,,,,
Fix,GT,37.3521633000,-122.0083965000,3.913237491663878,1.4434998,0.1,90.71873,1615418437440,,,,
Fix,GT,37.3521632000,-122.0083729000,3.89683131793214,2.7849762,0.1,90.558174,1615418438440,,,,
Fix,GT,37.3521630000,-122.0083326000,3.8738311992279932,4.335045,0.1,90.43516,1615418439440,,,,
Fix,GT,37.3521628000,-122.0082745000,3.8348311643592723,6.074785,0.1,90.17191,1615418440440,,,,
Fix,GT,37.3521628000,-122.0081972000,3.7958310160614204,7.583474,0.1,90.06099,1615418441440,,,,
Fix,GT,37.3521628000,-122.0081047000,3.759643688352135,8.795383,0.1,90.06319,1615418442440,,,,
Fix,GT,37.3521629000,-122.0079979000,3.7194247834984964,10.126097,0.1,89.7843,1615418443440,,,,
Fix,GT,37.3521637000,-122.0078765000,3.6703934770202693,11.387786,0.1,89.439,1615418444440,,,,
Fix,GT,37.3521648000,-122.0077411000,3.581768202431185,12.562201,0.1,89.550224,1615418445440,,,,
Fix,GT,37.3521653000,-122.0075974000,3.4971746695009642,12.805433,0.1,89.95315,1615418446440,,,,
Fix,GT,37.3521654000,-122.0074536000,3.3939871898297156,12.659626,0.1,90.01226,1615418447440,,,,
Fix,GT,37.3521653000,-122.0073112000,3.2771746365991703,12.624879,0.1,90.07009,1615418448440,,,,
Fix,GT,37.3521653000,-122.0071684000,3.169955718183921,12.688447,0.1,89.98046,1615418449440,,,,
Fix,GT,37.3521651000,-122.0070245000,3.055987125933541,12.763384,0.1,90.17379,1615418450440,,,,
Fix,GT,37.3521647000,-122.0068811000,2.916768237053901,12.676983,0.1,90.28506,1615418451440,,,,
Fix,GT,37.3521642000,-122.0067377000,2.783799737338285,12.691741,0.1,90.23128,1615418452440,,,,
Fix,GT,37.3521638000,-122.0065952000,2.6561745758023676,12.536962,0.1,90.151566,1615418453440,,,,
Fix,GT,37.3521640000,-122.0064551000,2.550612211492492,12.295736,0.1,89.807144,1615418454440,,,,
Fix,GT,37.3521646000,-122.0063177000,2.453987120092293,12.059462,0.1,89.6931,1615418455440,,,,
Fix,GT,37.3521649000,-122.0061830000,2.3786123546345266,11.805656,0.1,89.99706,1615418456440,,,,
Fix,GT,37.3521645000,-122.0060512000,2.3232060267937413,11.539838,0.1,90.33299,1615418457440,,,,
Fix,GT,37.3521643000,-122.0059224000,2.2734247857948873,11.265785,0.1,90.09491,1615418458440,,,,
Fix,GT,37.3521638000,-122.0057985000,2.227237375315255,10.572709,0.1,90.35559,1615418459440,,,,
Fix,GT,37.3521632000,-122.0056848000,2.202612299054664,9.53322,0.1,90.44405,1615418460440,,,,
Fix,GT,37.3521629000,-122.0055851000,2.1806438663049974,8.101328,0.1,90.23004,1615418461440,,,,
Fix,GT,37.3521630000,-122.0055024000,2.1722374695314954,6.568256,0.1,89.92145,1615418462440,,,,
Fix,GT,37.3521631000,-122.0054369000,2.1462374456300495,5.064533,0.1,90.00412,1615418463440,,,,
Fix,GT,37.3521630000,-122.0053868000,2.137643721216122,3.806377,0.1,90.222694,1615418464440,,,,
Fix,GT,37.3521629000,-122.0053513000,2.1292374211608944,2.4544432,0.1,90.18135,1615418465440,,,,
Fix,GT,37.3521628000,-122.0053307000,2.1230499744415283,1.1803799,0.1,90.14992,1615418466440,,,,
Fix,GT,37.3521628000,-122.0053244000,2.1186437011376,0.03252344,0.1,90.13536,1615418467440,,,,
Fix,GT,37.3521628000,-122.0053244000,2.1130499839782715,0.0012459223,0.1,90.14041,1615418468440,,,,
Fix,GT,37.3521628000,-122.0053244000,2.112049993513523,0.0012459222,0.1,90.13878,1615418469440,,,,
Fix,GT,37.3521628000,-122.0053244000,2.1120500564575195,0.0004062915,0.1,90.139046,1615418470440,,,,
Fix,GT,37.3521628000,-122.0053244000,2.1120500564575195,0.00059370836,0.1,90.13894,1615418471440,,,,
Fix,GT,37.3521628000,-122.0053244000,2.112050119401516,0.0005937083,0.1,90.13879,1615418472440,,,,
Fix,GT,37.3521628000,-122.0053244000,2.1120500564575195,0.00040629192,0.1,90.13876,1615418473440,,,,
Fix,GT,37.3521628000,-122.0053244000,2.1120500564575195,0.00059370795,0.1,90.1387,1615418474440,,,,
Fix,GT,37.3521628000,-122.0053244000,2.1120500564575195,0.0,0.1,90.13861,1615418475440,,,,
Fix,GT,37.3521628000,-122.0053244000,2.1120500564575195,0.0,0.1,90.13861,1615418476440,,,,
Fix,GT,37.3521628000,-122.0053244000,2.1120500564575195,0.0,0.1,90.13873,1615418477440,,,,
Fix,GT,37.3521628000,-122.0053244000,2.112050119401516,0.00040629262,0.1,90.138824,1615418478440,,,,
Fix,GT,37.3521628000,-122.0053244000,2.1120500564575195,0.0,0.1,90.13876,1615418479440,,,,
Fix,GT,37.3521628000,-122.0053244000,2.1120500564575195,0.0,0.1,90.13861,1615418480440,,,,
Fix,GT,37.3521628000,-122.0053244000,2.112050119401516,0.0010000002,0.1,90.138695,1615418481440,,,,
Fix,GT,37.3521628000,-122.0053244000,2.1120500564575195,0.001,0.1,90.138664,1615418482440,,,,
Fix,GT,37.3521628000,-122.0053244000,2.112049993513523,0.00059370685,0.1,90.138626,1615418483440,,,,
Fix,GT,37.3521628000,-122.0053244000,2.112050119401516,0.0004062932,0.1,90.138626,1615418484440,,,,
Fix,GT,37.3521628000,-122.0053244000,2.112049993513523,0.00040629337,0.1,90.1387,1615418485440,,,,
Fix,GT,37.3521628000,-122.0053244000,2.112050119401516,0.0,0.1,90.13898,1615418486440,,,,
Fix,GT,37.3521628000,-122.0053244000,2.1120500564575195,0.0005937065,0.1,90.13908,1615418487440,,,,
Fix,GT,37.3521628000,-122.0053244000,2.112050119401516,0.001,0.1,90.139114,1615418488440,,,,
Fix,GT,37.3521628000,-122.0053244000,2.1120500564575195,0.00040629378,0.1,90.13919,1615418489440,,,,
Fix,GT,37.3521628000,-122.0053244000,2.112049993513523,0.00059370615,0.1,90.13921,1615418490440,,,,
Fix,GT,37.3521628000,-122.0053244000,2.112049993513523,0.001812588,0.1,90.138954,1615418491440,,,,
Fix,GT,37.3521628000,-122.0053244000,2.112049993513523,0.0015022071,0.1,90.13918,1615418492440,,,,
Fix,GT,37.3521628000,-122.0053244000,2.112049993513523,0.0005937058,0.1,90.13894,1615418493440,,,,
Fix,GT,37.3521628000,-122.0053244000,2.1120500564575195,0.0021874115,0.1,90.13871,1615418494440,,,,
Fix,GT,37.3521628000,-122.0053244000,2.112050119401516,0.0005937057,0.1,90.139145,1615418495440,,,,
Fix,GT,37.3521628000,-122.0053244000,2.112049993513523,0.0015937055,0.1,90.13912,1615418496440,,,,
Fix,GT,37.3521628000,-122.0053244000,2.1120500564575195,0.0,0.1,90.13887,1615418497440,,,,
Fix,GT,37.3521628000,-122.0053244000,2.1120500564575195,0.0,0.1,90.13892,1615418498440,,,,
Fix,GT,37.3521628000,-122.0053244000,2.1120500564575195,0.0014142136,0.1,90.13895,1615418499440,,,,
Fix,GT,37.3521628000,-122.0053244000,2.112049993513523,0.00040629494,0.1,90.138855,1615418500440,,,,
Fix,GT,37.3521628000,-122.0053239000,2.1040499210357666,0.2885102,0.1,90.13921,1615418501440,,,,
Fix,GT,37.3521628000,-122.0053142000,2.095643758419442,1.6190388,0.1,90.11469,1615418502440,,,,
Fix,GT,37.3521629000,-122.0052865000,2.0876437644287478,3.3203292,0.1,89.92398,1615418503440,,,,
Fix,GT,37.3521631000,-122.0052394000,2.0824563509789016,5.0074635,0.1,89.66347,1615418504440,,,,
Fix,GT,37.3521636000,-122.0051727000,2.063643693152386,6.7706156,0.1,89.44792,1615418505440,,,,
Fix,GT,37.3521645000,-122.0050872000,2.03808150886924,8.27438,0.1,89.24763,1615418506440,,,,
Fix,GT,37.3521658000,-122.0049877000,2.0372374038762473,9.398689,0.1,89.16188,1615418507440,,,,
Fix,GT,37.3521671000,-122.0048742000,2.007237432128875,10.694765,0.1,89.07894,1615418508440,,,,
Fix,GT,37.3521693000,-122.0047469000,2.0016121644343556,11.851143,0.1,88.83606,1615418509440,,,,
Fix,GT,37.3521711000,-122.0046075000,1.9760499000549316,12.786013,0.1,89.0961,1615418510440,,,,
Fix,GT,37.3521730000,-122.0044594000,1.966831165046024,13.462639,0.1,89.129105,1615418511440,,,,
Fix,GT,37.3521752000,-122.0043037000,1.9296122532482443,14.11747,0.1,88.79189,1615418512440,,,,
Fix,GT,37.3521781000,-122.0041413000,1.8954246833631387,14.6704235,0.1,88.79714,1615418513440,,,,
Fix,GT,37.3521807000,-122.0039731000,1.8586122704441799,15.100006,0.1,89.05869,1615418514440,,,,
Fix,GT,37.3521828000,-122.0038008000,1.8075806560484224,15.429691,0.1,89.0882,1615418515440,,,,
Fix,GT,37.3521855000,-122.0036248000,1.7241743263007727,15.756741,0.1,88.87786,1615418516440,,,,
Fix,GT,37.3521885000,-122.0034458000,1.6373932384804455,15.933443,0.1,88.715256,1615418517440,,,,
Fix,GT,37.3521918000,-122.0032658000,1.5763932497159132,15.963881,0.1,88.84971,1615418518440,,,,
Fix,GT,37.3521948000,-122.0030855000,1.4835807501671248,15.98498,0.1,88.73644,1615418519440,,,,
Fix,GT,37.3521982000,-122.0029050000,1.401237477037025,15.993495,0.1,88.733894,1615418520440,,,,
Fix,GT,37.3522012000,-122.0027244000,1.3507996187485602,16.008698,0.1,88.821045,1615418521440,,,,
Fix,GT,37.3522042000,-122.0025437000,1.2939869615440074,16.016594,0.1,88.86464,1615418522440,,,,
Fix,GT,37.3522076000,-122.0023628000,1.1893933280676805,16.041786,0.1,88.62169,1615418523440,,,,
Fix,GT,37.3522108000,-122.0021818000,1.1253932836607277,16.047855,0.1,88.80979,1615418524440,,,,
Fix,GT,37.3522136000,-122.0020016000,1.0105807296687246,15.883541,0.1,88.99054,1615418525440,,,,
Fix,GT,37.3522159000,-122.0018237000,0.903205871969412,15.640083,0.1,89.211655,1615418526440,,,,
Fix,GT,37.3522168000,-122.0016484000,0.76073662528513,15.414267,0.1,90.02982,1615418527440,,,,
Fix,GT,37.3522157000,-122.0014758000,0.6505807373996255,15.173439,0.1,90.80697,1615418528440,,,,
Fix,GT,37.3522139000,-122.0013058000,0.5191429484818464,14.955582,0.1,90.46203,1615418529440,,,,
Fix,GT,37.3522142000,-122.0011383000,0.3848310973126896,14.726445,0.1,89.56749,1615418530440,,,,
Fix,GT,37.3522157000,-122.0009734000,0.28539330519719996,14.483343,0.1,89.342224,1615418531440,,,,
Fix,GT,37.3522176000,-122.0008113000,0.1681429333006239,14.24906,0.1,89.04376,1615418532440,,,,
Fix,GT,37.3522199000,-122.0006518000,0.07076811394190052,14.011904,0.1,88.96489,1615418533440,,,,
Fix,GT,37.3522221000,-122.0004950000,-0.028638188166849154,13.786451,0.1,88.98066,1615418534440,,,,
Fix,GT,37.3522245000,-122.0003407000,-0.11701296836092467,13.555922,0.1,88.888824,1615418535440,,,,
Fix,GT,37.3522270000,-122.0001895000,-0.2217941048889296,13.150101,0.1,88.784225,1615418536440,,,,
Fix,GT,37.3522296000,-122.0000453000,-0.3120129954972848,12.358576,0.1,88.70795,1615418537440,,,,
Fix,GT,37.3522318000,-121.9999117000,-0.3962003910669907,11.203502,0.1,89.08296,1615418538440,,,,
Fix,GT,37.3522330000,-121.9997943000,-0.48501300007059456,9.581476,0.1,89.36181,1615418539440,,,,
Fix,GT,37.3522338000,-121.9996958000,-0.5493878730483779,7.845752,0.1,89.46314,1615418540440,,,,
Fix,GT,37.3522344000,-121.9996173000,-0.5951689525539763,6.0139046,0.1,89.51602,1615418541440,,,,
Fix,GT,37.3522348000,-121.9995638000,-0.6311689482937339,3.521255,0.1,89.61004,1615418542440,,,,
Fix,GT,37.3522350000,-121.9995336000,-0.6573563136778731,2.002299,0.1,89.6238,1615418543440,,,,
Fix,GT,37.3522351000,-121.9995186000,-0.6673563042007373,0.65881044,0.1,89.594666,1615418544440,,,,
Fix,GT,37.3522351000,-121.9995167000,-0.6755437536798432,0.0029113423,0.1,89.59364,1615418545440,,,,
Fix,GT,37.3522351000,-121.9995167000,-0.6769500970840454,0.0011682941,0.1,89.592606,1615418546440,,,,
Fix,GT,37.3522351000,-121.9995167000,-0.6769501172587304,0.0014142136,0.1,89.58953,1615418547440,,,,
Fix,GT,37.3522351000,-121.9995167000,-0.6769500970840454,0.00083962147,0.1,89.589905,1615418548440,,,,
Fix,GT,37.3522351000,-121.9995167000,-0.6769501172587304,0.00059370196,0.1,89.58993,1615418549440,,,,
Fix,GT,37.3522351000,-121.9995167000,-0.6769500970840454,0.00040629806,0.1,89.59002,1615418550440,,,,
Fix,GT,37.3522351000,-121.9995167000,-0.6769500970840454,0.0,0.1,89.59,1615418551440,,,,
Fix,GT,37.3522351000,-121.9995167000,-0.6769501172587304,0.0,0.1,89.58989,1615418552440,,,,
Fix,GT,37.3522351000,-121.9995167000,-0.6769500970840454,0.0,0.1,89.58996,1615418553440,,,,
Fix,GT,37.3522351000,-121.9995167000,-0.6769501172587304,0.0,0.1,89.59,1615418554440,,,,
Fix,GT,37.3522351000,-121.9995167000,-0.6769500970840454,0.0,0.1,89.59013,1615418555440,,,,
Fix,GT,37.3522351000,-121.9995167000,-0.6769500970840454,0.001,0.1,89.59027,1615418556440,,,,
Fix,GT,37.3522351000,-121.9995167000,-0.6769501172587304,0.00040629832,0.1,89.59026,1615418557440,,,,
Fix,GT,37.3522351000,-121.9995167000,-0.6769501172587304,0.0,0.1,89.59025,1615418558440,,,,
Fix,GT,37.3522351000,-121.9995167000,-0.6769500970840454,0.001,0.1,89.590324,1615418559440,,,,
Fix,GT,37.3522351000,-121.9995167000,-0.6769501172587304,0.00040629832,0.1,89.590385,1615418560440,,,,
Fix,GT,37.3522351000,-121.9995167000,-0.6769501172587304,0.00040629832,0.1,89.5905,1615418561440,,,,
Fix,GT,37.3522351000,-121.9995167000,-0.6769501172587304,0.000839621,0.1,89.59051,1615418562440,,,,
Fix,GT,37.3522351000,-121.9995167000,-0.6769501172587304,0.0011682943,0.1,89.59048,1615418563440,,,,
Fix,GT,37.3522351000,-121.9995167000,-0.6769500970840454,0.0012459193,0.1,89.5906,1615418564440,,,,
Fix,GT,37.3522351000,-121.9995167000,-0.6769500970840454,0.001,0.1,89.59069,1615418565440,,,,
Fix,GT,37.3522351000,-121.9995167000,-0.6769500970840454,0.001,0.1,89.59063,1615418566440,,,,
Fix,GT,37.3522351000,-121.9995167000,-0.6769501172587304,0.00040629855,0.1,89.590706,1615418567440,,,,
Fix,GT,37.3522351000,-121.9995167000,-0.6769500970840454,0.0,0.1,89.590645,1615418568440,,,,
Fix,GT,37.3522351000,-121.9995167000,-0.6769500970840454,0.001,0.1,89.59058,1615418569440,,,,
Fix,GT,37.3522351000,-121.9995167000,-0.6769500970840454,0.0,0.1,89.590675,1615418570440,,,,
Fix,GT,37.3522351000,-121.9995167000,-0.6769501172587304,0.0012459193,0.1,89.59076,1615418571440,,,,
Fix,GT,37.3522351000,-121.9995167000,-0.6769501172587304,0.001,0.1,89.590996,1615418572440,,,,
Fix,GT,37.3522351000,-121.9995167000,-0.6769500970840454,0.00040629867,0.1,89.59093,1615418573440,,,,
Fix,GT,37.3522351000,-121.9995167000,-0.6769500970840454,0.0,0.1,89.59094,1615418574440,,,,
Fix,GT,37.3522351000,-121.9995167000,-0.6769500970840454,0.0,0.1,89.591,1615418575440,,,,
Fix,GT,37.3522351000,-121.9995167000,-0.6769500970840454,0.0,0.1,89.59097,1615418576440,,,,
Fix,GT,37.3522351000,-121.9995167000,-0.6769500970840454,0.0011682946,0.1,89.59104,1615418577440,,,,
Fix,GT,37.3522351000,-121.9995167000,-0.6769501172587304,0.0012459191,0.1,89.59114,1615418578440,,,,
Fix,GT,37.3522351000,-121.9995167000,-0.6769500970840454,0.0005937012,0.1,89.591255,1615418579440,,,,
Fix,GT,37.3522351000,-121.9995167000,-0.6769500970840454,0.0005745934,0.1,89.59129,1615418580440,,,,
Fix,GT,37.3522351000,-121.9995167000,-0.6769500970840454,0.0014142136,0.1,89.59126,1615418581440,,,,
Fix,GT,37.3522351000,-121.9995167000,-0.6769501172587304,0.0014142136,0.1,89.59134,1615418582440,,,,
Fix,GT,37.3522351000,-121.9995167000,-0.6769501172587304,0.0012459191,0.1,89.591484,1615418583440,,,,
Fix,GT,37.3522351000,-121.9995167000,-0.6769500970840454,0.0014142136,0.1,89.59157,1615418584440,,,,
Fix,GT,37.3522351000,-121.9995167000,-0.6769501172587304,0.0014142136,0.1,89.59154,1615418585440,,,,
Fix,GT,37.3522351000,-121.9995167000,-0.6769501172587304,0.001,0.1,89.591675,1615418586440,,,,
Fix,GT,37.3522351000,-121.9995167000,-0.6769501172587304,0.001,0.1,89.59175,1615418587440,,,,
Fix,GT,37.3522351000,-121.9995167000,-0.6769500769093604,0.0,0.1,89.59176,1615418588440,,,,
Fix,GT,37.3522351000,-121.9995167000,-0.6769500970840454,0.0,0.1,89.5918,1615418589440,,,,
Fix,GT,37.3522351000,-121.9995167000,-0.6769500970840454,0.0,0.1,89.59173,1615418590440,,,,
Fix,GT,37.3522351000,-121.9995167000,-0.6769501172587304,0.001245919,0.1,89.59185,1615418591440,,,,
Fix,GT,37.3522351000,-121.9995167000,-0.6769500769093604,0.001,0.1,89.591866,1615418592440,,,,
Fix,GT,37.3522352000,-121.9995167000,-0.6769500769093604,0.00040629922,0.1,89.59176,1615418593440,,,,
Fix,GT,37.3522352000,-121.9995167000,-0.6769501172587304,0.0024767432,0.1,89.591675,1615418594440,,,,
Fix,GT,37.3522352000,-121.9995143000,-0.6867626495631747,0.6374997,0.1,89.58446,1615418595440,,,,
Fix,GT,37.3522353000,-121.9994971000,-0.7057626613976744,2.5743494,0.1,89.487816,1615418596440,,,,
Fix,GT,37.3522358000,-121.9994558000,-0.7283563443103418,4.6512246,0.1,89.328766,1615418597440,,,,
Fix,GT,37.3522365000,-121.9993918000,-0.7679815785584481,6.811509,0.1,89.09863,1615418598440,,,,
Fix,GT,37.3522380000,-121.9993046000,-0.8293878138638071,8.507259,0.1,88.69373,1615418599440,,,,
